{"version": 0.6, "generator": "Overpass API 0.7.62.10 2d4cfc48", "osm3s": {"timestamp_osm_base": "2026-02-06T07:25:15Z", "copyright": "The data included in this document is from www.openstreetmap.org. The data is made available under ODbL."}, "elements": [{"type": "node", "id": 315710628, "lat": -6.1742123, "lon": 106.8442234}, {"type": "node", "id": 315710629, "lat": -6.175273, "lon": 106.8446336}, {"type": "node", "id": 318700038, "lat": -6.1734122, "lon": 106.6647511, "tags": {"bus": "yes", "highway": "bus_stop", "name": "Poris Plawad Bus Station", "public_transport": "platform"}}, {"type": "node", "id": 1124823633, "lat": -6.1533394, "lon": 106.9485193, "tags": {"highway": "bus_stop", "name": "Stop Point (Green Garden Stop Point) Angkot #28"}}, {"type": "node", "id": 1272931997, "lat": -6.1266847, "lon": 106.893841, "tags": {"bus": "yes", "highway": "bus_stop", "name": "halte pelumpang pertamina", "public_transport": "platform"}}, {"type": "node", "id": 1272932569, "lat": -6.1205868, "lon": 106.8931124, "tags": {"bus": "yes", "highway": "bus_stop", "name": "halte walikota jakarta utara", "public_transport": "platform"}}, {"type": "node", "id": 1278972435, "lat": -6.1277779, "lon": 106.8464371, "tags": {"bus": "yes", "highway": "bus_stop", "name": "Halte Sahari", "public_transport": "platform"}}, {"type": "node", "id": 1345808507, "lat": -6.2404946, "lon": 106.9428364, "tags": {"bus": "yes", "highway": "bus_stop", "name": "SDN Pondok Kelapa 05", "network": "Transjakarta", "network:wikidata": "Q1671143", "public_transport": "platform"}}, {"type": "node", "id": 1757800820, "lat": -6.1760383, "lon": 106.7926484, "tags": {"bench": "yes", "bus": "yes", "departures_board": "no", "highway": "bus_stop", "name": "Taman Anggrek", "network": "Transjakarta", "network:wikidata": "Q1671143", "public_transport": "platform", "shelter": "yes"}}, {"type": "node", "id": 1847920730, "lat": -6.2109376, "lon": 106.8205691, "tags": {"bus": "yes", "highway": "bus_stop", "name": "Grand Sahid", "network": "Transjakarta", "network:wikidata": "Q1671143", "operator": "Transjakarta", "public_transport": "platform", "route_ref": "1N;1P;1T;4C;6D;9D", "shelter": "yes"}}, {"type": "node", "id": 1847920732, "lat": -6.2121267, "lon": 106.819964, "tags": {"bus": "yes", "highway": "bus_stop", "name": "Karet Sudirman 3", "network": "Transjakarta", "network:wikidata": "Q1671143", "operator": "PT Transjakarta", "public_transport": "platform", "route_ref": "1N;1P;1T;4C;6D;9D", "shelter": "yes"}}, {"type": "node", "id": 1912469555, "lat": -6.2223396, "lon": 106.8326541, "tags": {"bus": "yes", "highway": "bus_stop", "name": "Perpustakaan Umum Daerah", "network": "Transjakarta", "network:wikidata": "Q1671143", "public_transport": "platform", "route_ref": "6C;6K;6P"}}, {"type": "node", "id": 2063493247, "lat": -6.3483498, "lon": 106.8297711, "tags": {"bench": "yes", "bus": "yes", "highway": "bus_stop", "name": "Asrama UI", "public_transport": "platform", "shelter": "yes", "wheelchair": "yes"}}, {"type": "node", "id": 2063493252, "lat": -6.3681218, "lon": 106.8315993, "tags": {"bench": "yes", "bus": "yes", "highway": "bus_stop", "name": "Balairung", "public_transport": "platform", "shelter": "yes"}}, {"type": "node", "id": 2063493256, "lat": -6.3594526, "lon": 106.8258186, "tags": {"bench": "yes", "bus": "yes", "highway": "bus_stop", "name": "Fakultas Ekonomi dan Bisnis", "public_transport": "platform", "shelter": "yes", "wheelchair": "yes"}}, {"type": "node", "id": 2063493261, "lat": -6.3596138, "lon": 106.8256942, "tags": {"bench": "yes", "bus": "yes", "highway": "bus_stop", "name": "Fakultas Ekonomi dan Bisnis", "public_transport": "platform", "shelter": "yes", "wheelchair": "yes"}}, {"type": "node", "id": 2063493265, "lat": -6.3648982, "lon": 106.8322269, "tags": {"bench": "yes", "bin": "yes", "bus": "yes", "highway": "bus_stop", "lit": "yes", "name": "Fakultas Hukum", "public_transport": "platform", "shelter": "yes"}}, {"type": "node", "id": 2063493269, "lat": -6.361182, "lon": 106.8294626, "tags": {"bench": "yes", "bus": "yes", "highway": "bus_stop", "name": "Fakultas Ilmu Pengetahuan Budaya", "public_transport": "platform", "shelter": "yes", "wheelchair": "yes"}}, {"type": "node", "id": 2063493277, "lat": -6.3618257, "lon": 106.8301197, "tags": {"bench": "yes", "bus": "yes", "highway": "bus_stop", "name": "Fakultas Ilmu Sosial dan Ilmu Politik", "public_transport": "platform", "shelter": "yes", "wheelchair": "limited"}}, {"type": "node", "id": 2063493292, "lat": -6.3629161, "lon": 106.8312015, "tags": {"bench": "yes", "bus": "yes", "check_date:shelter": "2022-04-26", "highway": "bus_stop", "name": "Fakultas Psikologi", "public_transport": "platform", "shelter": "yes"}}, {"type": "node", "id": 2063493295, "lat": -6.361283, "lon": 106.8233114, "tags": {"bench": "yes", "bus": "yes", "highway": "bus_stop", "name": "Fakultas Teknik", "public_transport": "platform", "shelter": "yes"}}, {"type": "node", "id": 2063493299, "lat": -6.3535289, "lon": 106.8318182, "tags": {"bench": "yes", "bus": "yes", "departures_board": "no", "highway": "bus_stop", "name": "Universitas Indonesia", "network": "Transjakarta", "network:wikidata": "Q1671143", "public_transport": "platform", "route_ref": "4B", "shelter": "yes"}}, {"type": "node", "id": 2063493308, "lat": -6.3655978, "lon": 106.8320129, "tags": {"bench": "yes", "bus": "yes", "highway": "bus_stop", "name": "Masjid UI", "public_transport": "platform", "shelter": "yes"}}, {"type": "node", "id": 2063493312, "lat": -6.3667604, "lon": 106.8240206, "tags": {"bench": "yes", "bus": "yes", "highway": "bus_stop", "name": "Pusgiwa", "public_transport": "platform", "shelter": "yes"}}, {"type": "node", "id": 2063493320, "lat": -6.3659523, "lon": 106.8218006, "tags": {"bench": "yes", "bus": "yes", "highway": "bus_stop", "name": "Program Vokasi", "public_transport": "platform", "shelter": "yes"}}, {"type": "node", "id": 2063493325, "lat": -6.3661131, "lon": 106.8216544, "tags": {"bench": "yes", "bus": "yes", "highway": "bus_stop", "name": "Program Vokasi", "public_transport": "platform", "shelter": "yes"}}, {"type": "node", "id": 2063493332, "lat": -6.3610642, "lon": 106.8317204, "tags": {"bench": "yes", "bin": "yes", "bus": "yes", "check_date:shelter": "2022-04-26", "highway": "bus_stop", "lit": "yes", "name": "Stasiun KRL Universitas Indonesia", "public_transport": "platform", "shelter": "yes"}}, {"type": "node", "id": 2134578080, "lat": -6.1234681, "lon": 106.6554922, "tags": {"highway": "bus_stop", "name": "Bus Stop Damri Terminal 2", "shelter": "yes"}}, {"type": "node", "id": 2134586662, "lat": -6.1310241, "lon": 106.6560898, "tags": {"bus": "yes", "highway": "bus_stop", "name": "Bus Stop Damri Terminal 1", "public_transport": "platform", "shelter": "yes"}}, {"type": "node", "id": 2202231645, "lat": -6.1328679, "lon": 106.8286184}, {"type": "node", "id": 2202231707, "lat": -6.1330423, "lon": 106.8279914}, {"type": "node", "id": 2202231724, "lat": -6.1330913, "lon": 106.8280096}, {"type": "node", "id": 2370144263, "lat": -6.2096011, "lon": 106.8490333}, {"type": "node", "id": 2377260400, "lat": -6.2603638, "lon": 106.747786, "tags": {"bench": "no", "bin": "no", "highway": "bus_stop", "name": "Pondok Betung", "shelter": "no"}}, {"type": "node", "id": 2624426286, "lat": -6.1373539, "lon": 106.814661}, {"type": "node", "id": 2624426287, "lat": -6.1370026, "lon": 106.8158413}, {"type": "node", "id": 2624426288, "lat": -6.1378049, "lon": 106.8147942}, {"type": "node", "id": 2624426289, "lat": -6.1374205, "lon": 106.8161095}, {"type": "node", "id": 2624426291, "lat": -6.1368155, "lon": 106.8159507}, {"type": "node", "id": 2956778144, "lat": -6.132819, "lon": 106.8286002}, {"type": "node", "id": 2995287614, "lat": -6.3670147, "lon": 106.8244835, "tags": {"bench": "yes", "bus": "yes", "highway": "bus_stop", "name": "SOR", "public_transport": "platform", "shelter": "yes"}}, {"type": "node", "id": 3201268075, "lat": -6.1582262, "lon": 106.754557}, {"type": "node", "id": 3201268076, "lat": -6.1582641, "lon": 106.7545488}, {"type": "node", "id": 3201268077, "lat": -6.1586739, "lon": 106.7566729}, {"type": "node", "id": 3201268078, "lat": -6.1587112, "lon": 106.756665}, {"type": "node", "id": 3213741278, "lat": -6.1277838, "lon": 106.8464638}, {"type": "node", "id": 3213741279, "lat": -6.1281226, "lon": 106.8446275}, {"type": "node", "id": 3372497309, "lat": -6.2732583, "lon": 106.7827596, "tags": {"highway": "bus_stop", "name": "Metro Alam III", "public_transport": "stop_position"}}, {"type": "node", "id": 3372497311, "lat": -6.2753938, "lon": 106.7821019, "tags": {"bus": "yes", "highway": "bus_stop", "name": "Metro Alam III", "public_transport": "platform"}}, {"type": "node", "id": 3415430997, "lat": -6.165812, "lon": 106.8204387, "tags": {"bus": "yes", "highway": "bus_stop", "name": "Harmoni Central Busway", "network": "Transjakarta", "network:wikidata": "Q1671143", "operator": "Transjakarta", "public_transport": "platform", "shelter": "yes", "shelter_tj": "yes"}}, {"type": "node", "id": 3415431045, "lat": -6.1673317, "lon": 106.7882638, "tags": {"amenity": "bus_station", "bus": "yes", "covered": "yes", "departures_board": "realtime", "highway": "bus_stop", "lit": "yes", "name": "Grogol Reformasi", "network": "Transjakarta", "network:wikidata": "Q1671143", "old_name": "Grogol 2", "operator": "Transjakarta", "public_transport": "platform", "ref": "9-20", "route_ref": "3F;9;9A;8;M9", "shelter": "yes", "smoking": "no", "wikidata": "Q19726047", "wikipedia": "id:Halte Transjakarta Grogol Reformasi"}}, {"type": "node", "id": 3415431046, "lat": -6.1744166, "lon": 106.8547177, "tags": {"addr:city": "Central Jakarta", "addr:postcode": "10530", "addr:street": "Jl. Letjen Suprapto", "amenity": "bus_station", "bus": "yes", "departures_board": "realtime", "highway": "bus_stop", "name": "Galur", "network": "Transjakarta", "network:wikidata": "Q1671143", "operator": "Transjakarta", "public_transport": "platform", "ref": "2-11", "route_ref": "2;2A;7F", "shelter": "yes", "source": "HOT_InAWARESurvey_2017", "wikidata": "Q19725782", "wikipedia": "id:Halte Transjakarta Galur"}}, {"type": "node", "id": 3415431050, "lat": -6.2327047, "lon": 106.8217239, "tags": {"amenity": "bus_station", "bus": "yes", "covered": "yes", "departures_board": "realtime", "highway": "bus_stop", "lit": "yes", "name": "Denpasar Arah Timur", "network": "Transjakarta", "network:wikidata": "Q1671143", "opening_hours": "closed", "operator": "Transjakarta", "public_transport": "platform", "ref": "9-12", "route_ref": "9;9C;9A;6B;M9", "shelter": "yes", "smoking": "no", "type": "public_transport"}}, {"type": "node", "id": 3415431294, "lat": -6.1249972, "lon": 106.8000099, "tags": {"bus": "yes", "corridor12": "yes", "highway": "bus_stop", "name": "Landmark Auto Plaza", "network": "Transjakarta", "network:wikidata": "Q1671143", "operator": "Transjakarta", "public_transport": "platform", "service": "TransJakarta", "shelter": "yes", "shelter_tj": "yes"}}, {"type": "node", "id": 3415431306, "lat": -6.1493027, "lon": 106.8167033, "tags": {"addr:city": "Central Jakarta", "addr:postcode": "10120", "addr:street": "Jalan Hayam Wuruk", "amenity": "bus_station", "bus": "yes", "departures_board": "realtime", "highway": "bus_stop", "name": "Taman Sari", "network": "Transjakarta", "network:wikidata": "Q1671143", "old_name": "Olimo", "operator": "Transjakarta", "public_transport": "platform", "ref": "1-18", "route_ref": "1A;1;3H;M1", "shelter": "yes", "wikidata": "Q12501284", "wikipedia": "id:Halte Transjakarta Taman Sari"}}, {"type": "node", "id": 3415431310, "lat": -6.2620275, "lon": 106.8654261, "tags": {"amenity": "bus_station", "bus": "yes", "covered": "yes", "departures_board": "realtime", "highway": "bus_stop", "lit": "yes", "name": "PGC", "network": "Transjakarta", "network:wikidata": "Q1671143", "operator": "PT. Transportasi Jakarta", "public_transport": "platform", "ref": "10-22", "route_ref": "5C;5D;10;9A", "shelter": "yes", "smoking": "no", "type": "public_transport", "wikidata": "Q19944081", "wikipedia": "id:Halte Transjakarta PGC"}}, {"type": "node", "id": 3415431314, "lat": -6.2117281, "lon": 106.9512437, "tags": {"bus": "yes", "corridor11": "yes", "highway": "bus_stop", "name": "Pulogebang", "network": "Transjakarta", "network:wikidata": "Q1671143", "operator": "Transjakarta", "public_transport": "platform", "service": "TransJakarta", "shelter": "yes", "shelter_tj": "yes", "wikidata": "Q28725669", "wikipedia": "en:Pulo Gebang Bus Terminal"}}, {"type": "node", "id": 3415431318, "lat": -6.2416725, "lon": 106.8372822, "tags": {"amenity": "bus_station", "bus": "yes", "covered": "yes", "departures_board": "realtime", "highway": "bus_stop", "lit": "yes", "name": "Pancoran Arah Barat", "network": "Transjakarta", "network:wikidata": "Q1671143", "old_name": "Pancoran Barat Arah Barat", "operator": "Transjakarta", "public_transport": "platform", "ref": "9-9", "route_ref": "4K;5N;7R;9:9A;9C;9D;13B;M9", "shelter": "yes", "smoking": "no", "type": "public_transport", "wikidata": "Q19944036", "wikipedia": "id:Halte Transjakarta Pancoran", "wikipedia:id": "Halte Transjakarta Pancoran"}}, {"type": "node", "id": 3415431355, "lat": -6.3057626, "lon": 106.8190175, "tags": {"amenity": "bus_station", "bus": "yes", "departures_board": "realtime", "highway": "bus_stop", "name": "Ragunan", "network": "Transjakarta", "network:wikidata": "Q1671143", "operator": "Transjakarta", "public_transport": "platform", "ref": "6-1", "route_ref": "6;6A;6B;6V", "service": "Transjakarta", "shelter": "yes", "wheelchair": "yes", "wikidata": "Q19944133", "wikipedia": "id:Halte Transjakarta Ragunan"}}, {"type": "node", "id": 3415431373, "lat": -6.1601812, "lon": 106.8192259, "tags": {"bus": "yes", "highway": "bus_stop", "name": "Sawah Besar", "network": "Transjakarta", "network:wikidata": "Q1671143", "operator": "Transjakarta", "public_transport": "platform", "shelter": "yes", "shelter_tj": "yes"}}, {"type": "node", "id": 3415431384, "lat": -6.193262, "lon": 106.8836945, "tags": {"addr:city": "East Jakarta", "addr:postcode": "13220", "addr:street": "Jalan Pemuda", "amenity": "bus_station", "bus": "yes", "departures_board": "realtime", "highway": "bus_stop", "name": "Kayu Jati", "network": "Transjakarta", "network:wikidata": "Q1671143", "old_name": "Sunan Giri", "operator": "Transjakarta", "public_transport": "platform", "ref": "4-7", "route_ref": "4;4D;M4", "shelter": "yes", "wikidata": "Q20427574", "wikipedia": "id:Halte Transjakarta Kayu Jati"}}, {"type": "node", "id": 3415431398, "lat": -6.1929121, "lon": 106.8803154, "tags": {"addr:city": "East Jakarta", "addr:postcode": "13220", "addr:street": "Jalan Pemuda", "amenity": "bus_station", "bus": "yes", "departures_board": "realtime", "highway": "bus_stop", "name": "Rawamangun", "network": "Transjakarta", "network:wikidata": "Q1671143", "old_name": "UNJ", "operator": "Transjakarta", "public_transport": "platform", "ref": "4-8", "route_ref": "4;4D;M4", "shelter": "yes", "wikidata": "Q20427728", "wikipedia": "id:Halte Transjakarta Rawamangun"}}, {"type": "node", "id": 3415431401, "lat": -6.1934641, "lon": 106.8883007, "tags": {"addr:city": "East Jakarta", "addr:postcode": "13220", "addr:street": "Jalan Pemuda", "amenity": "bus_station", "bus": "yes", "departures_board": "realtime", "highway": "bus_stop", "name": "Velodrome", "network": "Transjakarta", "network:wikidata": "Q1671143", "operator": "Transjakarta", "public_transport": "platform", "ref": "4-6", "route_ref": "4;4D;M4", "shelter": "yes", "wikidata": "Q20427740", "wikipedia": "id:Halte Transjakarta Velodrome"}}, {"type": "node", "id": 3415431879, "lat": -6.1831813, "lon": 106.9088927, "tags": {"amenity": "bus_station", "bus": "yes", "departures_board": "realtime", "highway": "bus_stop", "name": "Pulo Gadung", "network": "Transjakarta", "network:wikidata": "Q1671143", "operator": "Transjakarta", "public_transport": "platform", "ref": "2-1;4-1", "route_ref": "2;2A;4;4D;M4", "shelter": "yes", "wikidata": "Q19731203", "wikipedia": "id:Halte Transjakarta Pulo Gadung"}}, {"type": "node", "id": 3724063530, "lat": -6.1368967, "lon": 106.8159741}, {"type": "node", "id": 3724063555, "lat": -6.1371164, "lon": 106.8158728}, {"type": "node", "id": 3724063562, "lat": -6.1371981, "lon": 106.8160429}, {"type": "node", "id": 3724063563, "lat": -6.1372763, "lon": 106.8146417}, {"type": "node", "id": 3724063569, "lat": -6.137312, "lon": 106.8160774}, {"type": "node", "id": 3724063572, "lat": -6.1374663, "lon": 106.8146912}, {"type": "node", "id": 3724063573, "lat": -6.137527, "lon": 106.8160115}, {"type": "node", "id": 3724063574, "lat": -6.1374715, "lon": 106.8159517}, {"type": "node", "id": 3724063578, "lat": -6.1375606, "lon": 106.8159135}, {"type": "node", "id": 3724063580, "lat": -6.1375877, "lon": 106.8147277}, {"type": "node", "id": 3724063584, "lat": -6.1376985, "lon": 106.8147657}, {"type": "node", "id": 3724063591, "lat": -6.1378843, "lon": 106.8148241}, {"type": "node", "id": 3804581846, "lat": -6.3078045, "lon": 106.8390308}, {"type": "node", "id": 3804581852, "lat": -6.3093898, "lon": 106.8387668}, {"type": "node", "id": 3878007757, "lat": -6.1879003, "lon": 106.8232561, "tags": {"bus": "yes", "highway": "bus_stop", "name": "M.H. Thamrin 1", "network": "Transjakarta", "network:wikidata": "Q1671143", "operator": "Transjakarta", "public_transport": "platform", "route_ref": "1P;1N;1T", "shelter": "yes"}}, {"type": "node", "id": 4153077675, "lat": -6.2246739, "lon": 106.8055632, "tags": {"bus": "yes", "highway": "bus_stop", "name": "Gelora Bung Karno 1", "network": "Transjakarta", "network:wikidata": "Q1671143", "public_transport": "platform", "route_ref": "1P;1N;1K;4C;6D;B13", "shelter": "yes"}}, {"type": "node", "id": 4153084611, "lat": -6.2241017, "lon": 106.8056025, "tags": {"bus": "yes", "highway": "bus_stop", "name": "Gelora Bung Karno 2", "network": "Transjakarta", "network:wikidata": "Q1671143", "public_transport": "platform", "route_ref": "1P;1N;1K;4C;6D;B13", "shelter": "yes"}}, {"type": "node", "id": 4153207914, "lat": -6.3074874, "lon": 106.756036, "tags": {"bus": "yes", "gtfs:stop_id": "B01811P", "highway": "bus_stop", "name": "Kampus UIN 1", "network": "Transjakarta", "network:wikidata": "Q1671143", "public_transport": "platform", "route_ref": "S21;S22", "shelter": "yes"}}, {"type": "node", "id": 4168666943, "lat": -6.1724963, "lon": 106.6639449}, {"type": "node", "id": 4168666944, "lat": -6.1721604, "lon": 106.6660362}, {"type": "node", "id": 4235106000, "lat": -6.2998085, "lon": 106.8926164, "tags": {"bench": "yes", "bin": "yes", "bus": "yes", "highway": "bus_stop", "name": "Anjungan Jambi", "passenger_information_display": "yes", "public_transport": "platform", "ref": "H8", "shelter": "yes"}}, {"type": "node", "id": 4235135320, "lat": -6.2231832, "lon": 106.8093561, "tags": {"addr:city": "South Jakarta", "addr:postcode": "12190", "addr:street": "Senayan, Kby. Baru", "bus": "yes", "highway": "bus_stop", "name": "Halte BEI", "public_transport": "platform", "shelter": "yes"}}, {"type": "node", "id": 4235139589, "lat": -6.2053403, "lon": 106.8167553, "tags": {"addr:city": "Central Jakarta", "addr:postcode": "10220", "addr:street": "Jl. Kh. Mas Mansyur", "bus": "yes", "highway": "bus_stop", "name": "London School", "network": "Transjakarta", "network:wikidata": "Q1671143", "public_transport": "platform", "route_ref": "5F;6K;JAK09", "shelter": "yes"}}, {"type": "node", "id": 4235175230, "lat": -6.1816483, "lon": 106.8428742, "tags": {"addr:city": "Central Jakarta", "addr:postcode": "10420", "addr:street": "Jalan Kramat Raya", "bus": "yes", "highway": "bus_stop", "name": "Halte Pal Putih", "public_transport": "platform"}}, {"type": "node", "id": 4235200076, "lat": -6.2205372, "lon": 106.8131677, "tags": {"addr:city": "South Jakarta", "addr:postcode": "12930", "addr:street": "Jalan Jenderal Gatot Subroto", "amenity": "bus_station", "bus": "yes", "covered": "yes", "departures_board": "realtime", "highway": "bus_stop", "lit": "yes", "name": "Semanggi", "network": "Transjakarta", "network:wikidata": "Q1671143", "opening_hours": "24/7", "operator": "Transportasi Jakarta", "public_transport": "platform", "ref": "9-14", "route_ref": "9;M9", "shelter": "yes", "smoking": "no", "type": "public_transport"}}, {"type": "node", "id": 4235212506, "lat": -6.2557314, "lon": 106.8493674, "tags": {"addr:postcode": "12740", "addr:street": "Jalan TMP Kalibata", "bus": "yes", "highway": "bus_stop", "name": "Danau TMP Kalibata", "network": "Transjakarta", "network:wikidata": "Q1671143", "public_transport": "platform", "route_ref": "7B"}}, {"type": "node", "id": 4275270903, "lat": -6.20712, "lon": 106.8411231, "tags": {"addr:city": "South Jakarta", "addr:housenumber": "RT.1/RW.3", "addr:postcode": "12970", "addr:street": "Jalan Pasar rumput", "amenity": "bus_station", "bus": "yes", "departures_board": "realtime", "highway": "bus_stop", "name": "Pasar Rumput", "network": "Transjakarta", "network:wikidata": "Q1671143", "operator": "Transjakarta", "public_transport": "platform", "ref": "4-15", "route_ref": "4;4D;M4", "shelter": "yes", "wikidata": "Q20427068", "wikipedia": "id:Halte Transjakarta Pasar Rumput"}}, {"type": "node", "id": 4275299209, "lat": -6.1989006, "lon": 106.8544856, "tags": {"amenity": "bus_station", "bus": "yes", "highway": "bus_stop", "name": "Flyover Pramuka", "network": "Transjakarta", "network:wikidata": "Q1671143", "old_name": "Matraman 2", "operator": "Transjakarta", "public_transport": "platform", "ref": "4-13", "route_ref": "4;4D;M4", "shelter": "yes", "wikidata": "Q20427713", "wikipedia": "id:Halte Transjakarta Flyover Pramuka"}}, {"type": "node", "id": 4275299246, "lat": -6.1922351, "lon": 106.8685673, "tags": {"amenity": "bus_station", "bus": "yes", "departures_board": "realtime", "highway": "bus_stop", "name": "Pramuka Sari", "network": "Transjakarta", "network:wikidata": "Q1671143", "old_name": "Pramuka LIA", "operator": "Transjakarta", "public_transport": "platform", "ref": "4-10", "route_ref": "4;4D;M4", "shelter": "yes", "wikidata": "Q20427205", "wikipedia": "id:Halte Transjakarta Pramuka Sari"}}, {"type": "node", "id": 4275299265, "lat": -6.1944472, "lon": 106.8609219, "tags": {"addr:city": "Central Jakarta", "addr:postcode": "10510", "addr:street": "Jalan Pramuka", "amenity": "bus_station", "bus": "yes", "departures_board": "realtime", "highway": "bus_stop", "name": "Pasar Genjing", "network": "Transjakarta", "network:wikidata": "Q1671143", "operator": "Transjakarta", "public_transport": "platform", "ref": "4-12", "route_ref": "4;4D;M4", "shelter": "yes", "wikidata": "Q20427053", "wikipedia": "id:Halte Transjakarta Pasar Genjing RSIA Evasari"}}, {"type": "node", "id": 4275299272, "lat": -6.1927391, "lon": 106.86458, "tags": {"amenity": "bus_station", "bus": "yes", "departures_board": "realtime", "highway": "bus_stop", "name": "Utan Kayu", "network": "Transjakarta", "network:wikidata": "Q1671143", "operator": "Transjakarta", "public_transport": "platform", "ref": "4-11", "route_ref": "4;4D;M4", "shelter": "yes", "wikidata": "Q20427735", "wikipedia": "id:Halte Transjakarta Utan Kayu"}}, {"type": "node", "id": 4324648489, "lat": -6.1681749, "lon": 106.8312889, "tags": {"bus": "yes", "highway": "bus_stop", "name": "Juanda (Bus Wisata)", "public_transport": "platform"}}, {"type": "node", "id": 4324648589, "lat": -6.1725384, "lon": 106.823196, "tags": {"bus": "yes", "highway": "bus_stop", "name": "Monas 1", "network": "Transjakarta", "network:wikidata": "Q1671143", "public_transport": "platform"}}, {"type": "node", "id": 4324648590, "lat": -6.1806211, "lon": 106.8284307, "tags": {"bus": "yes", "highway": "bus_stop", "name": "Balai Kota 1", "network": "Transjakarta", "network:wikidata": "Q1671143", "public_transport": "platform", "route_ref": "1P", "shelter": "yes"}}, {"type": "node", "id": 4324648789, "lat": -6.1792545, "lon": 106.8230523, "tags": {"bus": "yes", "highway": "bus_stop", "name": "Monas 3", "network": "Transjakarta", "network:wikidata": "Q1671143", "public_transport": "platform", "route_ref": "1P"}}, {"type": "node", "id": 4324721689, "lat": -6.1763278, "lon": 106.8226322, "tags": {"bus": "yes", "highway": "bus_stop", "name": "Museum Nasional", "public_transport": "platform", "route_ref": "1P"}}, {"type": "node", "id": 4324721789, "lat": -6.1535465, "lon": 106.8173795, "tags": {"bus": "yes", "highway": "bus_stop", "name": "Gedung Arsip (Bus Wisata)", "public_transport": "platform"}}, {"type": "node", "id": 4324722789, "lat": -6.1666345, "lon": 106.8352307, "tags": {"bus": "yes", "highway": "bus_stop", "name": "Pasar Baru Gedung Kesenian Jakarta", "network": "Transjakarta", "network:wikidata": "Q1671143", "public_transport": "platform", "route_ref": "1P"}}, {"type": "node", "id": 4344270875, "lat": -6.175621, "lon": 106.7930504}, {"type": "node", "id": 4409362739, "lat": -6.2333148, "lon": 106.8218967, "tags": {"amenity": "bus_station", "bus": "yes", "covered": "yes", "departures_board": "realtime", "highway": "bus_stop", "lit": "yes", "name": "Denpasar Arah Barat", "network": "Transjakarta", "network:wikidata": "Q1671143", "opening_hours": "closed", "operator": "Transjakarta", "public_transport": "platform", "ref": "9-12", "route_ref": "9;9C;9A;6B;6M;M9", "shelter": "yes", "smoking": "no", "type": "public_transport"}}, {"type": "node", "id": 4409469348, "lat": -6.2088691, "lon": 106.8474339, "tags": {"addr:city": "South Jakarta", "addr:postcode": "12850", "addr:street": "Jalan Sultan Agung", "amenity": "bus_station", "bus": "yes", "highway": "bus_stop", "name": "Manggarai", "network": "Transjakarta", "network:wikidata": "Q1671143", "operator": "Transjakarta", "public_transport": "platform", "ref": "4-14", "route_ref": "4;4D;M4", "shelter": "yes", "wikidata": "Q20427677", "wikipedia": "id:Halte Transjakarta Manggarai"}}, {"type": "node", "id": 4435644444, "lat": -6.1522468, "lon": 106.8173456, "tags": {"bus": "yes", "highway": "bus_stop", "name": "Mangga Besar", "public_transport": "platform"}}, {"type": "node", "id": 4435644447, "lat": -6.1521587, "lon": 106.8174429, "tags": {"bus": "yes", "highway": "bus_stop", "name": "Mangga Besar", "public_transport": "platform"}}, {"type": "node", "id": 4481892129, "lat": -6.2084889, "lon": 106.8590316, "tags": {"bus": "yes", "highway": "bus_stop", "name": "Slamet Riyadi 1", "network": "Transjakarta", "network:wikidata": "Q1671143", "public_transport": "platform", "route_ref": "5M"}}, {"type": "node", "id": 4500377911, "lat": -6.2895461, "lon": 106.8802519, "tags": {"bus": "yes", "gtfs:stop_id": "B02924P", "highway": "bus_stop", "name": "Pondok Gede Raya", "network": "Transjakarta", "network:wikidata": "Q1671143", "operator": "TransJakarta", "public_transport": "platform", "route_ref": "7D;JAK108", "website": "transjakarta.co.id"}}, {"type": "node", "id": 4500384548, "lat": -6.2898854, "lon": 106.8775139, "tags": {"bus": "yes", "highway": "bus_stop", "name": "Dukuh 5", "network": "Transjakarta", "network:wikidata": "Q1671143", "operator": "TransJakarta", "public_transport": "platform", "route_ref": "7D", "website": "transjakarta.co.id"}}, {"type": "node", "id": 4523343076, "lat": -6.2916017, "lon": 106.8808847, "tags": {"bench": "yes", "bus": "yes", "gtfs:stop_id": "B05664P", "highway": "bus_stop", "name": "Tamini Square 2", "network": "Transjakarta", "network:wikidata": "Q1671143", "opening_hours": "Mo-Su 06:00-21:00", "public_transport": "platform", "route_ref": "JAK108", "shelter": "yes", "website": "transjakarta.co.id"}}, {"type": "node", "id": 4523447725, "lat": -6.2915276, "lon": 106.8806631, "tags": {"alt_name": "Jasamarga Toll Road Maintenance", "bus": "yes", "gtfs:stop_id": "B01726P", "highway": "bus_stop", "name": "Tamini Square 1", "network": "Transjakarta", "network:wikidata": "Q1671143", "opening_hours": "05:00-22:00", "operator": "Transjakarta", "public_transport": "platform", "route_ref": "7D;JAK108", "website": "transjakarta.co.id"}}, {"type": "node", "id": 4523506096, "lat": -6.298404, "lon": 106.8832405, "tags": {"bench": "no", "bus": "yes", "gtfs:stop_id": "B02281P", "highway": "bus_stop", "name": "Masjid At Tin", "network": "Transjakarta", "network:wikidata": "Q1671143", "opening_hours": "05:00-22:00", "operator": "Transjakarta", "public_transport": "platform", "route_ref": "JAK108", "shelter": "no", "website": "transjakarta.co.id"}}, {"type": "node", "id": 4527515175, "lat": -6.2098031, "lon": 106.850018}, {"type": "node", "id": 4527515180, "lat": -6.2105831, "lon": 106.8506175}, {"type": "node", "id": 4542730177, "lat": -6.144506, "lon": 106.8365659}, {"type": "node", "id": 4542730391, "lat": -6.1445011, "lon": 106.8365899}, {"type": "node", "id": 4548974734, "lat": -6.2025914, "lon": 106.8477848, "tags": {"bus": "yes", "covered": "yes", "highway": "bus_stop", "name": "Tugu Proklamasi", "network": "Transjakarta", "network:wikidata": "Q1671143", "operator": "Transjakarta", "public_transport": "platform", "route_ref": "4C;5M", "shelter": "yes"}}, {"type": "node", "id": 4587093283, "lat": -6.2776957, "lon": 106.8694841, "tags": {"bench": "no", "bus": "yes", "highway": "bus_stop", "name": "Pusdikkes", "network": "Transjakarta", "network:wikidata": "Q1671143", "operator": "Transjakarta", "public_transport": "platform", "route_ref": "7B", "shelter": "yes"}}, {"type": "node", "id": 4587093284, "lat": -6.277837, "lon": 106.8693688, "tags": {"bench": "no", "bus": "yes", "highway": "bus_stop", "name": "Rumah Sakit Pusdikkes", "network": "Transjakarta", "network:wikidata": "Q1671143", "operator": "Transjakarta", "public_transport": "platform", "route_ref": "7B", "shelter": "no"}}, {"type": "node", "id": 4695570070, "lat": -6.1281687, "lon": 106.6501886}, {"type": "node", "id": 4695570071, "lat": -6.1282262, "lon": 106.6502126}, {"type": "node", "id": 4695686983, "lat": -6.2367229, "lon": 106.7527183, "tags": {"bus": "yes", "highway": "bus_stop", "public_transport": "platform"}}, {"type": "node", "id": 4773905024, "lat": -6.2552225, "lon": 106.8551131}, {"type": "node", "id": 4780613086, "lat": -6.1835532, "lon": 106.8106537}, {"type": "node", "id": 4780613088, "lat": -6.1862304, "lon": 106.8109569}, {"type": "node", "id": 4787385035, "lat": -6.202734, "lon": 106.8250483}, {"type": "node", "id": 4804983607, "lat": -6.2425207, "lon": 106.8587386}, {"type": "node", "id": 4804983608, "lat": -6.2409735, "lon": 106.8587227}, {"type": "node", "id": 4804983609, "lat": -6.2425222, "lon": 106.8586323}, {"type": "node", "id": 4804983610, "lat": -6.2409702, "lon": 106.8586102}, {"type": "node", "id": 4804983615, "lat": -6.2273629, "lon": 106.8585033}, {"type": "node", "id": 4804983616, "lat": -6.2258631, "lon": 106.8584858}, {"type": "node", "id": 4804983617, "lat": -6.2275282, "lon": 106.8583893}, {"type": "node", "id": 4804983618, "lat": -6.2260124, "lon": 106.8583597}, {"type": "node", "id": 4817686420, "lat": -6.1978613, "lon": 106.8408675}, {"type": "node", "id": 4817686521, "lat": -6.19736, "lon": 106.8405215}, {"type": "node", "id": 4817686522, "lat": -6.1979653, "lon": 106.8407254}, {"type": "node", "id": 4817686523, "lat": -6.1974507, "lon": 106.8403552}, {"type": "node", "id": 4817734304, "lat": -6.1938398, "lon": 106.8567052}, {"type": "node", "id": 4817734305, "lat": -6.1940634, "lon": 106.8567924}, {"type": "node", "id": 4817734306, "lat": -6.192635, "lon": 106.8557013}, {"type": "node", "id": 4817734307, "lat": -6.1922436, "lon": 106.8554996}, {"type": "node", "id": 4863529547, "lat": -6.1724104, "lon": 106.8437625}, {"type": "node", "id": 4863529548, "lat": -6.175267, "lon": 106.84481}, {"type": "node", "id": 4901054525, "lat": -6.2017617, "lon": 106.8207569}, {"type": "node", "id": 4911946588, "lat": -6.2012674, "lon": 106.7998444, "tags": {"bus": "yes", "highway": "bus_stop", "public_transport": "platform"}}, {"type": "node", "id": 4912180465, "lat": -6.1565302, "lon": 106.8012199}, {"type": "node", "id": 4912180466, "lat": -6.1544798, "lon": 106.8011221}, {"type": "node", "id": 4912180467, "lat": -6.1545725, "lon": 106.8011973}, {"type": "node", "id": 4912180468, "lat": -6.1561478, "lon": 106.8012756}, {"type": "node", "id": 4912180469, "lat": -6.1565929, "lon": 106.8014345}, {"type": "node", "id": 4912180470, "lat": -6.1544302, "lon": 106.8013036}, {"type": "node", "id": 4912419397, "lat": -6.2442391, "lon": 106.7825538, "tags": {"bus": "yes", "highway": "bus_stop", "name": "Iskandar Muda", "network": "Transjakarta", "network:wikidata": "Q1671143", "operator": "PT Transjakarta", "public_transport": "platform", "route_ref": "8D;8N", "shelter": "yes"}}, {"type": "node", "id": 4961436157, "lat": -6.1458418, "lon": 106.8007917}, {"type": "node", "id": 4961436158, "lat": -6.1435449, "lon": 106.8006703}, {"type": "node", "id": 4974699703, "lat": -6.1189263, "lon": 106.6676645, "tags": {"amenity": "bus_station", "bench": "yes", "bin": "yes", "covered": "yes", "highway": "bus_stop", "name": "CGK Terminal 3", "shelter": "yes"}}, {"type": "node", "id": 5121389476, "lat": -6.1322503, "lon": 106.828231}, {"type": "node", "id": 5121389477, "lat": -6.1323073, "lon": 106.8284366}, {"type": "node", "id": 5121389478, "lat": -6.1320851, "lon": 106.8279911}, {"type": "node", "id": 5121389479, "lat": -6.132657, "lon": 106.8290476}, {"type": "node", "id": 5121389480, "lat": -6.1326999, "lon": 106.8290194}, {"type": "node", "id": 5121389481, "lat": -6.1321407, "lon": 106.8279794}, {"type": "node", "id": 5142535889, "lat": -6.1329424, "lon": 106.8282638}, {"type": "node", "id": 5291889728, "lat": -6.1198991, "lon": 106.664797}, {"type": "node", "id": 5444502101, "lat": -6.2787292, "lon": 106.7422337}, {"type": "node", "id": 5446959944, "lat": -6.2763244, "lon": 106.7452485}, {"type": "node", "id": 5447990730, "lat": -6.138409, "lon": 106.832183, "tags": {"bus": "yes", "highway": "bus_stop", "name:en": "Bus Damri Mangga Dua Square to Soekarno - Hatta (from 6am until 7pm every full hour)", "public_transport": "platform"}}, {"type": "node", "id": 5673769091, "lat": -6.1650431, "lon": 106.8055107, "tags": {"bus": "yes", "highway": "bus_stop", "public_transport": "platform"}}, {"type": "node", "id": 5699883421, "lat": -6.1221797, "lon": 106.8601307, "tags": {"bus": "yes", "highway": "bus_stop", "name:en": "Coastal Villa", "public_transport": "platform"}}, {"type": "node", "id": 5742971806, "lat": -6.2552509, "lon": 106.8551899}, {"type": "node", "id": 5833636988, "lat": -6.1934835, "lon": 106.8228616, "tags": {"bus": "yes", "highway": "bus_stop", "name": "Plaza Indonesia", "network": "Transjakarta", "network:wikidata": "Q1671143", "operator": "PT Transjakarta", "public_transport": "platform", "route_ref": "1N;1P;1T", "shelter": "yes"}}, {"type": "node", "id": 5833636989, "lat": -6.1932605, "lon": 106.8232401, "tags": {"bus": "yes", "highway": "bus_stop", "name": "Wisma Nusantara", "network": "Transjakarta", "network:wikidata": "Q1671143", "operator": "PT Transjakarta", "public_transport": "platform", "route_ref": "1P;1N;1T", "shelter": "yes"}}, {"type": "node", "id": 5833636994, "lat": -6.2274883, "lon": 106.8018286, "tags": {"bus": "yes", "highway": "bus_stop", "name": "Bundaran Senayan 1", "name:en": "Bundaran Senayan 1", "network": "Transjakarta", "network:wikidata": "Q1671143", "operator": "Transjakarta", "public_transport": "platform", "route_ref": "1P;1N;1K;4C;6D;B13"}}, {"type": "node", "id": 5833652487, "lat": -6.2046855, "lon": 106.8221035, "tags": {"bus": "yes", "highway": "bus_stop", "name": "Dukuh Atas 4", "network": "Transjakarta", "network:wikidata": "Q1671143", "operator": "PT Transjakarta", "public_transport": "platform", "route_ref": "1N;1P;1T;4C;9D", "shelter": "yes"}}, {"type": "node", "id": 5833652488, "lat": -6.216281, "lon": 106.8167323, "tags": {"bus": "yes", "highway": "bus_stop", "name": "Plaza Sentral", "network": "Transjakarta", "network:wikidata": "Q1671143", "operator": "Transjakarta", "public_transport": "platform", "route_ref": "1B;1N;1P;1T;4C;6D;9D", "shelter": "yes"}}, {"type": "node", "id": 5833652489, "lat": -6.1661975, "lon": 106.8203827, "tags": {"bus": "yes", "highway": "bus_stop", "name:en": "Harmoni", "public_transport": "platform"}}, {"type": "node", "id": 5833652585, "lat": -6.2167345, "lon": 106.8154478, "tags": {"bus": "yes", "highway": "bus_stop", "name": "Benhil 2", "network": "Transjakarta", "network:wikidata": "Q1671143", "operator": "PT Transjakarta", "public_transport": "platform", "route_ref": "1B;1T;9D;4C", "shelter": "yes"}}, {"type": "node", "id": 5886926185, "lat": -6.1902017, "lon": 106.7678429, "tags": {"highway": "bus_stop", "name:en": "Toll Kebon Jeruk"}}, {"type": "node", "id": 5912025910, "lat": -6.2018727, "lon": 106.7999118}, {"type": "node", "id": 5912025911, "lat": -6.2020478, "lon": 106.799996}, {"type": "node", "id": 5912025912, "lat": -6.2020731, "lon": 106.7999427}, {"type": "node", "id": 5912025913, "lat": -6.2020511, "lon": 106.7999321}, {"type": "node", "id": 5912025914, "lat": -6.2021086, "lon": 106.7998109}, {"type": "node", "id": 5912025915, "lat": -6.2021293, "lon": 106.7998208}, {"type": "node", "id": 5912025916, "lat": -6.2021492, "lon": 106.7997789}, {"type": "node", "id": 5912025917, "lat": -6.2019674, "lon": 106.7996916}, {"type": "node", "id": 5912025918, "lat": -6.2019476, "lon": 106.7997335}, {"type": "node", "id": 5912025919, "lat": -6.2020579, "lon": 106.7997864}, {"type": "node", "id": 5912025920, "lat": -6.2020422, "lon": 106.7998194}, {"type": "node", "id": 5912025921, "lat": -6.2019861, "lon": 106.7997925}, {"type": "node", "id": 5912025922, "lat": -6.2019609, "lon": 106.7998454}, {"type": "node", "id": 5912025923, "lat": -6.2020217, "lon": 106.7998746}, {"type": "node", "id": 5912025924, "lat": -6.2020042, "lon": 106.7999114}, {"type": "node", "id": 5912025925, "lat": -6.2018974, "lon": 106.79986}, {"type": "node", "id": 5929741003, "lat": -6.1282661, "lon": 106.6502293}, {"type": "node", "id": 5929741004, "lat": -6.1276247, "lon": 106.6518453}, {"type": "node", "id": 5929741005, "lat": -6.1275852, "lon": 106.6518295}, {"type": "node", "id": 5929741006, "lat": -6.1275285, "lon": 106.6518069}, {"type": "node", "id": 5929741007, "lat": -6.1274888, "lon": 106.651791}, {"type": "node", "id": 5929741008, "lat": -6.1281292, "lon": 106.6501721}, {"type": "node", "id": 5998661315, "lat": -6.1839296, "lon": 106.8105612}, {"type": "node", "id": 5998661316, "lat": -6.1863501, "lon": 106.8108011}, {"type": "node", "id": 6065222088, "lat": -6.1827873, "lon": 106.8128351, "tags": {"bus": "yes", "gtfs:stop_id": "B01638P", "highway": "bus_stop", "name": "Jalan Taman Jatibaru Timur", "network": "Transjakarta", "network:wikidata": "Q1671143", "operator": "PT Transjakarta", "public_transport": "platform", "route_ref": "1H;1N;1R;5M;8C;8M;9D;JAK07;JAK.08;JAK09;JAK.10;JAK11;JAK12;JAK13;JAK14", "shelter": "no"}}, {"type": "node", "id": 6115550836, "lat": -6.2129141, "lon": 106.9527033, "tags": {"bus": "yes", "departures_board": "realtime", "highway": "bus_stop", "name": "Terminal Pulogebang", "network": "Transjakarta", "network:wikidata": "Q1671143", "operator": "Transjakarta", "public_transport": "platform", "ref": "11-1", "shelter": "yes", "wikidata": "Q19944118", "wikipedia": "id:Halte Transjakarta Pulogebang"}}, {"type": "node", "id": 6124140185, "lat": -6.1123857, "lon": 106.752659, "tags": {"bench": "yes", "bin": "no", "bus": "yes", "highway": "bus_stop", "lit": "yes", "name": "RS PIK 1", "network": "Transjakarta", "network:wikidata": "Q1671143", "public_transport": "platform", "route_ref": "1A", "shelter": "yes"}}, {"type": "node", "id": 6124140186, "lat": -6.1897591, "lon": 106.7673038, "tags": {"highway": "bus_stop", "name:en": "Toll Kebon Jeruk"}}, {"type": "node", "id": 6124141187, "lat": -6.1132402, "lon": 106.7490248, "tags": {"bus": "yes", "highway": "bus_stop", "name": "Waterboom Jakarta 2", "network": "Transjakarta", "network:wikidata": "Q1671143", "public_transport": "platform", "route_ref": "1A", "shelter": "yes"}}, {"type": "node", "id": 6124141589, "lat": -6.102875, "lon": 106.7412383, "tags": {"bench": "yes", "bus": "yes", "highway": "bus_stop", "name": "Fresh Market PIK", "network": "Transjakarta", "network:wikidata": "Q1671143", "public_transport": "platform", "route_ref": "1A", "shelter": "yes"}}, {"type": "node", "id": 6124141590, "lat": -6.1087276, "lon": 106.7397283, "tags": {"bench": "yes", "bin": "yes", "bus": "yes", "highway": "bus_stop", "name": "PIK Avenue", "network": "Transjakarta", "network:wikidata": "Q1671143", "public_transport": "platform", "route_ref": "1A", "shelter": "yes"}}, {"type": "node", "id": 6180702186, "lat": -6.1837937, "lon": 106.81161, "tags": {"bench": "yes", "bin": "yes", "bus": "yes", "highway": "bus_stop", "name": "Jak Lingko Tanah Abang 2", "network": "Transjakarta", "network:wikidata": "Q1671143", "operator": "Transjakarta", "public_transport": "platform", "route_ref": "1H;JAK.10", "shelter": "yes", "tactile_paving": "yes"}}, {"type": "node", "id": 6180706491, "lat": -6.1843173, "lon": 106.8115851, "tags": {"bus": "yes", "gtfs:stop_id": "G00650", "highway": "bus_stop", "name": "Explorer Tanah Abang", "network": "Transjakarta", "network:wikidata": "Q1671143", "operator": "PT Transjakarta", "public_transport": "platform", "route_ref": "1H;1N;1R;5M;9D;JAK07;JAK11;JAK12;JAK14", "shelter": "yes"}}, {"type": "node", "id": 6180889985, "lat": -6.1821455, "lon": 106.8141278, "tags": {"bus": "yes", "highway": "bus_stop", "name:en": "Trans Jakarta 9D", "public_transport": "platform"}}, {"type": "node", "id": 6180890285, "lat": -6.1819597, "lon": 106.8140493, "tags": {"bus": "yes", "gtfs:stop_id": "B05666P", "highway": "bus_stop", "name": "Tanah Abang 2", "network": "Transjakarta", "network:wikidata": "Q1671143", "operator": "PT Transjakarta", "public_transport": "platform", "route_ref": "1H;1N;1R;5M;8M;8C;9D;JAK.08;JAK09;JAK.10", "shelter": "no"}}, {"type": "node", "id": 6185594591, "lat": -6.1750885, "lon": 106.8096337, "tags": {"bus": "yes", "highway": "bus_stop", "public_transport": "platform"}}, {"type": "node", "id": 6185595086, "lat": -6.1727546, "lon": 106.8090633, "tags": {"bus": "yes", "highway": "bus_stop", "name:en": "Taman Musi", "public_transport": "platform"}}, {"type": "node", "id": 6185878487, "lat": -6.1794, "lon": 106.8127549, "tags": {"bus": "yes", "highway": "bus_stop", "name": "JPO Asrama Polri Cideng", "network": "Transjakarta", "network:wikidata": "Q1671143", "public_transport": "platform", "route_ref": "JAK13"}}, {"type": "node", "id": 6185878488, "lat": -6.1792839, "lon": 106.8131295, "tags": {"bus": "yes", "gtfs:stop_id": "B02692P", "highway": "bus_stop", "name": "Pasar Tomas", "network": "Transjakarta", "network:wikidata": "Q1671143", "public_transport": "platform", "route_ref": "JAK13"}}, {"type": "node", "id": 6187462594, "lat": -6.1697801, "lon": 106.8174503, "tags": {"bus": "yes", "highway": "bus_stop", "name:en": "Halte Sekolah", "public_transport": "platform"}}, {"type": "node", "id": 6187462908, "lat": -6.1652753, "lon": 106.8200738, "tags": {"bus": "yes", "highway": "bus_stop", "public_transport": "platform"}}, {"type": "node", "id": 6187462911, "lat": -6.1603045, "lon": 106.8189931, "tags": {"bus": "yes", "highway": "bus_stop", "public_transport": "platform"}}, {"type": "node", "id": 6187463002, "lat": -6.1617157, "lon": 106.810914, "tags": {"bus": "yes", "highway": "bus_stop", "public_transport": "platform"}}, {"type": "node", "id": 6190345188, "lat": -6.1802771, "lon": 106.8178749, "tags": {"bus": "yes", "highway": "bus_stop", "name:en": "Budi Kemulyaan", "network": "Transjakarta", "network:wikidata": "Q1671143", "public_transport": "platform", "route_ref": "JAK.10"}}, {"type": "node", "id": 6190359490, "lat": -6.145056, "lon": 106.8158312, "tags": {"highway": "bus_stop"}}, {"type": "node", "id": 6197859988, "lat": -6.115168, "lon": 106.88061, "tags": {"bus": "yes", "gtfs:stop_id": "B04221P", "highway": "bus_stop", "name": "Sbr. Polsek Tj. Priok", "network": "Transjakarta", "network:wikidata": "Q1671143", "public_transport": "platform", "route_ref": "JAK01"}}, {"type": "node", "id": 6197859991, "lat": -6.1145773, "lon": 106.8836233, "tags": {"bus": "yes", "highway": "bus_stop", "name:en": "TK Hang Tuah I", "network": "Transjakarta", "network:wikidata": "Q1671143", "public_transport": "platform", "route_ref": "JAK.87"}}, {"type": "node", "id": 6197909686, "lat": -6.115316, "lon": 106.88029, "tags": {"bus": "yes", "gtfs:stop_id": "B02914P", "highway": "bus_stop", "name": "Polsek Tj. Priok", "network": "Transjakarta", "network:wikidata": "Q1671143", "public_transport": "platform", "route_ref": "JAK01"}}, {"type": "node", "id": 6198029285, "lat": -6.113101, "lon": 106.88321, "tags": {"bus": "yes", "gtfs:stop_id": "B05591P", "highway": "bus_stop", "name": "Taman Gorontalo", "network": "Transjakarta", "network:wikidata": "Q1671143", "public_transport": "platform", "route_ref": "JAK01"}}, {"type": "node", "id": 6198029286, "lat": -6.112994, "lon": 106.88324, "tags": {"bus": "yes", "gtfs:stop_id": "B04524P", "highway": "bus_stop", "name": "Sbr. Taman Gorontalo", "network": "Transjakarta", "network:wikidata": "Q1671143", "public_transport": "platform", "route_ref": "JAK01"}}, {"type": "node", "id": 6200723286, "lat": -6.1865469, "lon": 106.8157469, "tags": {"bus": "yes", "gtfs:stop_id": "B03022P", "highway": "bus_stop", "name": "Pusat Mode Tanah Abang", "network": "Transjakarta", "network:wikidata": "Q1671143", "public_transport": "platform", "route_ref": "JAK.08;JAK09"}}, {"type": "node", "id": 6201153989, "lat": -6.1872262, "lon": 106.8183191, "tags": {"bus": "yes", "highway": "bus_stop", "name": "Jalan Kebon Kacang VIII", "network": "Transjakarta", "network:wikidata": "Q1671143", "public_transport": "platform", "route_ref": "1H"}}, {"type": "node", "id": 6201180090, "lat": -6.1870131, "lon": 106.8190919, "tags": {"bus": "yes", "highway": "bus_stop", "name:en": "Trans Jakarta feeder", "public_transport": "platform"}}, {"type": "node", "id": 6201180586, "lat": -6.1923093, "lon": 106.8148781, "tags": {"bus": "yes", "gtfs:stop_id": "B03296P", "highway": "bus_stop", "name": "Rusun Tanah Abang 1", "network": "Transjakarta", "network:wikidata": "Q1671143", "public_transport": "platform", "route_ref": "JAK.08;5F;JAK09", "wheelchair": "no"}}, {"type": "node", "id": 6201183085, "lat": -6.1940363, "lon": 106.8173809, "tags": {"bus": "yes", "highway": "bus_stop", "name:en": "Damri to Airport", "public_transport": "platform"}}, {"type": "node", "id": 6210483685, "lat": -6.1813928, "lon": 106.8132207, "tags": {"bus": "yes", "gtfs:stop_id": "B00998P", "highway": "bus_stop", "name": "Jalan Cideng Barat Dalam", "network": "Transjakarta", "network:wikidata": "Q1671143", "public_transport": "platform", "route_ref": "JAK13"}}, {"type": "node", "id": 6210483686, "lat": -6.1659154, "lon": 106.8091333, "tags": {"bus": "yes", "highway": "bus_stop", "name": "Roxy Hasyim Ashari", "network": "Transjakarta", "network:wikidata": "Q1671143", "public_transport": "platform"}}, {"type": "node", "id": 6210483687, "lat": -6.166423, "lon": 106.7975881, "tags": {"bus": "yes", "gtfs:stop_id": "B03180P", "highway": "bus_stop", "name": "RS Sumber Waras 1", "network": "Transjakarta", "network:wikidata": "Q1671143", "public_transport": "platform", "route_ref": "JAK07"}}, {"type": "node", "id": 6210484285, "lat": -6.170608, "lon": 106.8107541, "tags": {"bus": "yes", "gtfs:stop_id": "B05179P", "highway": "bus_stop", "name": "Simpang Tarakan Cideng Barat", "network": "Transjakarta", "network:wikidata": "Q1671143", "public_transport": "platform", "route_ref": "JAK13"}}, {"type": "node", "id": 6210484286, "lat": -6.1661475, "lon": 106.810332, "tags": {"bus": "yes", "gtfs:stop_id": "B04944P", "highway": "bus_stop", "name": "Simpang Kyai Haji Hasyim Cideng Barat", "network": "Transjakarta", "network:wikidata": "Q1671143", "public_transport": "platform", "route_ref": "JAK13"}}, {"type": "node", "id": 6210484287, "lat": -6.1666789, "lon": 106.7937485, "tags": {"bus": "yes", "gtfs:stop_id": "B01663P", "highway": "bus_stop", "name": "Jalan Tanjung Gedong", "network": "Transjakarta", "network:wikidata": "Q1671143", "public_transport": "platform", "route_ref": "JAK13"}}, {"type": "node", "id": 6210484485, "lat": -6.1688562, "lon": 106.8105968, "tags": {"bus": "yes", "gtfs:stop_id": "B01490P", "highway": "bus_stop", "name": "Jalan Petojo Selatan VII", "network": "Transjakarta", "network:wikidata": "Q1671143", "public_transport": "platform", "route_ref": "JAK13"}}, {"type": "node", "id": 6210485403, "lat": -6.1736292, "lon": 106.7879808, "tags": {"bus": "yes", "gtfs:stop_id": "B02720P", "highway": "bus_stop", "name": "Pemadam Tanjung Duren", "network": "Transjakarta", "network:wikidata": "Q1671143", "public_transport": "platform", "route_ref": "8K;JAK.30"}}, {"type": "node", "id": 6210486391, "lat": -6.1731383, "lon": 106.7904797, "tags": {"bench": "yes", "bus": "yes", "highway": "bus_stop", "name": "Gerbang Tol Tanjung Duren", "network": "Transjakarta", "network:wikidata": "Q1671143", "public_transport": "platform", "shelter": "yes"}}, {"type": "node", "id": 6210540795, "lat": -6.1756695, "lon": 106.8018917, "tags": {"bus": "yes", "highway": "bus_stop", "public_transport": "platform"}}, {"type": "node", "id": 6213072688, "lat": -6.1865638, "lon": 106.8083828, "tags": {"bus": "yes", "highway": "bus_stop", "public_transport": "platform"}}, {"type": "node", "id": 6213078990, "lat": -6.1950591, "lon": 106.8051276, "tags": {"bus": "yes", "highway": "bus_stop", "public_transport": "platform"}}, {"type": "node", "id": 6213078993, "lat": -6.2013561, "lon": 106.8080091, "tags": {"bus": "yes", "gtfs:stop_id": "B03266P", "highway": "bus_stop", "name": "Rumah Susun Bendungan Hilir", "network": "Transjakarta", "network:wikidata": "Q1671143", "public_transport": "platform", "route_ref": "JAK.08"}}, {"type": "node", "id": 6213078998, "lat": -6.2035585, "lon": 106.8045719, "tags": {"bus": "yes", "highway": "bus_stop", "name:en": "Komplek", "public_transport": "platform"}}, {"type": "node", "id": 6213079003, "lat": -6.1982018, "lon": 106.8034828, "tags": {"bus": "yes", "highway": "bus_stop", "public_transport": "platform"}}, {"type": "node", "id": 6213079004, "lat": -6.197036, "lon": 106.8044361, "tags": {"bus": "yes", "highway": "bus_stop", "name:en": "Salvator", "public_transport": "platform"}}, {"type": "node", "id": 6213079601, "lat": -6.1984494, "lon": 106.8031795, "tags": {"bus": "yes", "highway": "bus_stop", "public_transport": "platform"}}, {"type": "node", "id": 6213079603, "lat": -6.1935221, "lon": 106.8053582, "tags": {"bus": "yes", "highway": "bus_stop", "public_transport": "platform"}}, {"type": "node", "id": 6213080092, "lat": -6.2014933, "lon": 106.8108052, "tags": {"bench": "yes", "bus": "yes", "gtfs:stop_id": "B02995P", "highway": "bus_stop", "name": "Pekerjaan Umum Irigasi", "network": "Transjakarta", "network:wikidata": "Q1671143", "public_transport": "platform", "route_ref": "JAK.08", "shelter": "yes"}}, {"type": "node", "id": 6213080096, "lat": -6.2015972, "lon": 106.8080746, "tags": {"bench": "yes", "bus": "yes", "gtfs:stop_id": "B01904P", "highway": "bus_stop", "name": "Kelurahan Bendungan Hilir", "network": "Transjakarta", "network:wikidata": "Q1671143", "public_transport": "platform", "route_ref": "JAK.08", "shelter": "yes"}}, {"type": "node", "id": 6213084990, "lat": -6.1926215, "lon": 106.8056651, "tags": {"bus": "yes", "highway": "bus_stop", "public_transport": "platform"}}, {"type": "node", "id": 6213148285, "lat": -6.1882346, "lon": 106.8146828, "tags": {"bus": "yes", "highway": "bus_stop", "name:en": "TransJakarta feeder", "public_transport": "platform"}}, {"type": "node", "id": 6219014085, "lat": -6.2047653, "lon": 106.8579935, "tags": {"bench": "no", "bus": "yes", "highway": "bus_stop", "name": "Tegalan 3", "network": "Transjakarta", "network:wikidata": "Q1671143", "public_transport": "platform", "shelter": "yes"}}, {"type": "node", "id": 6219014690, "lat": -6.2023993, "lon": 106.856511, "tags": {"bus": "yes", "highway": "bus_stop", "name": "Tegalan 1", "network": "Transjakarta", "network:wikidata": "Q1671143", "public_transport": "platform", "route_ref": "5M", "shelter": "yes"}}, {"type": "node", "id": 6219014695, "lat": -6.1972585, "lon": 106.8512163, "tags": {"bus": "yes", "highway": "bus_stop", "public_transport": "platform"}}, {"type": "node", "id": 6219014699, "lat": -6.1986726, "lon": 106.8533921, "tags": {"bus": "yes", "highway": "bus_stop", "name": "Kemensos", "network": "Transjakarta", "network:wikidata": "Q1671143", "public_transport": "platform", "route_ref": "4C"}}, {"type": "node", "id": 6219015596, "lat": -6.1985508, "lon": 106.8465678, "tags": {"bus": "yes", "gtfs:stop_id": "B03187P", "highway": "bus_stop", "name": "RSCM 1", "network": "Transjakarta", "network:wikidata": "Q1671143", "public_transport": "platform", "route_ref": "4C;JAK10A"}}, {"type": "node", "id": 6219015612, "lat": -6.1940844, "lon": 106.8394628, "tags": {"bus": "yes", "gtfs:stop_id": "B00002P", "highway": "bus_stop", "name": "ABA", "network": "Transjakarta", "network:wikidata": "Q1671143", "official_status": "unofficial", "operator": "PT Transjakarta", "public_transport": "platform", "route_ref": "JAK10A;JAK10B"}}, {"type": "node", "id": 6219016391, "lat": -6.1999607, "lon": 106.8445368, "tags": {"bus": "yes", "gtfs:stop_id": "B02399P", "highway": "bus_stop", "name": "Megaria", "network": "Transjakarta", "network:wikidata": "Q1671143", "operator": "PT Transjakarta", "public_transport": "platform", "route_ref": "4C;JAK10A", "shelter": "yes"}}, {"type": "node", "id": 6219016393, "lat": -6.1992077, "lon": 106.8420565, "tags": {"bus": "yes", "gtfs:stop_id": "B05433P", "highway": "bus_stop", "name": "Pegangsaan Timur", "network": "Transjakarta", "network:wikidata": "Q1671143", "operator": "PT Transjakarta", "public_transport": "platform", "route_ref": "JAK10A;JAK10B", "shelter": "yes"}}, {"type": "node", "id": 6219136692, "lat": -6.1879244, "lon": 106.8360904, "tags": {"bus": "yes", "gtfs:stop_id": "B00346P", "highway": "bus_stop", "name": "Farmasi RP Soeroso", "network": "Transjakarta", "network:wikidata": "Q1671143", "public_transport": "platform", "route_ref": "5M;JAK10A;JAK10B"}}, {"type": "node", "id": 6219673886, "lat": -6.1855468, "lon": 106.8358586, "tags": {"bus": "yes", "gtfs:stop_id": "B02425P", "highway": "bus_stop", "name": "Seberang Kanisius", "network": "Transjakarta", "network:wikidata": "Q1671143", "operator": "PT Transjakarta", "other_name": "Sekolahan", "public_transport": "platform", "route_ref": "JAK10A", "shelter": "yes"}}, {"type": "node", "id": 6219674085, "lat": -6.1852981, "lon": 106.8354649, "tags": {"bus": "yes", "gtfs:stop_id": "B01813P", "highway": "bus_stop", "name": "Kanisius", "name:ja": "\u30ab\u30cb\u30b7\u30a6\u30b9", "network": "Transjakarta", "network:wikidata": "Q1671143", "operator": "PT Transjakarta", "public_transport": "platform", "route_ref": "2P;2Q;5M;6H;JAK10B", "shelter": "yes"}}, {"type": "node", "id": 6221279189, "lat": -6.16456, "lon": 106.7631309, "tags": {"bus": "yes", "highway": "bus_stop", "public_transport": "platform"}}, {"type": "node", "id": 6221650896, "lat": -6.1644819, "lon": 106.7627416, "tags": {"bus": "yes", "highway": "bus_stop", "public_transport": "platform"}}, {"type": "node", "id": 6222912886, "lat": -6.177889, "lon": 106.8192688, "tags": {"bus": "yes", "highway": "bus_stop", "public_transport": "platform"}}, {"type": "node", "id": 6222912891, "lat": -6.1854569, "lon": 106.8233404, "tags": {"bus": "yes", "highway": "bus_stop", "name": "Sari San Mandiri", "network": "Transjakarta", "network:wikidata": "Q1671143", "operator": "Transjakarta", "public_transport": "platform", "route_ref": "1P;1N;1T", "shelter": "yes"}}, {"type": "node", "id": 6222912896, "lat": -6.1822187, "lon": 106.8329317, "tags": {"bus": "yes", "gtfs:stop_id": "B05693P", "highway": "bus_stop", "name": "Telkom Grapari", "network": "Transjakarta", "network:wikidata": "Q1671143", "operator": "PT Transjakarta", "public_transport": "platform", "route_ref": "1P;2P;2Q;5M;6H;JAK10B", "shelter": "yes"}}, {"type": "node", "id": 6222912900, "lat": -6.1781348, "lon": 106.8314963, "tags": {"bus": "yes", "highway": "bus_stop", "name:en": "Stasiun Gambir", "public_transport": "platform"}}, {"type": "node", "id": 6222913186, "lat": -6.1820395, "lon": 106.8174417, "tags": {"bus": "yes", "highway": "bus_stop", "name": "SMKN 38", "name:en": "SMKN 38", "network": "Transjakarta", "network:wikidata": "Q1671143", "operator": "PT Transjakarta", "public_transport": "platform", "route_ref": "1H", "shelter": "yes"}}, {"type": "node", "id": 6222913187, "lat": -6.1822197, "lon": 106.818067, "tags": {"bus": "yes", "highway": "bus_stop", "name": "Jembatan Serong", "network": "Transjakarta", "network:wikidata": "Q1671143", "operator": "PT Transjakarta", "public_transport": "platform", "route_ref": "1H", "shelter": "yes"}}, {"type": "node", "id": 6222913194, "lat": -6.1828975, "lon": 106.828519, "tags": {"bench": "yes", "bus": "yes", "gtfs:stop_id": "B00323P", "highway": "bus_stop", "name": "DPRD DKI Jakarta", "network": "Transjakarta", "network:wikidata": "Q1671143", "public_transport": "platform", "route_ref": "1H;1R;2Q;5M;JAK10A", "shelter": "yes"}}, {"type": "node", "id": 6222913788, "lat": -6.177451, "lon": 106.8312708, "tags": {"bus": "yes", "highway": "bus_stop", "name": "Stasiun Gambir", "network": "Transjakarta", "network:wikidata": "Q1671143", "public_transport": "platform", "route_ref": "1P"}}, {"type": "node", "id": 6222914385, "lat": -6.1830564, "lon": 106.8253708, "tags": {"bench": "yes", "bus": "yes", "gtfs:stop_id": "B02266P", "highway": "bus_stop", "name": "Masjid Ar Rayyan Kementerian BUMN", "network": "Transjakarta", "network:wikidata": "Q1671143", "public_transport": "platform", "route_ref": "1H;1R;2Q;5M;JAK10A", "shelter": "yes"}}, {"type": "node", "id": 6222915486, "lat": -6.1816702, "lon": 106.8329803, "tags": {"bus": "yes", "gtfs:stop_id": "B05814P", "highway": "bus_stop", "name": "Tugu Tani 1", "network": "Transjakarta", "network:wikidata": "Q1671143", "public_transport": "platform", "route_ref": "JAK10B", "shelter": "yes"}}, {"type": "node", "id": 6222915490, "lat": -6.1760933, "lon": 106.8231213, "tags": {"bus": "yes", "highway": "bus_stop", "name": "Monas 2", "network": "Transjakarta", "network:wikidata": "Q1671143", "public_transport": "platform", "route_ref": "1P"}}, {"type": "node", "id": 6222915886, "lat": -6.1763945, "lon": 106.8200058, "tags": {"bus": "yes", "highway": "bus_stop", "public_transport": "platform"}}, {"type": "node", "id": 6222917587, "lat": -6.181237, "lon": 106.8374686, "tags": {"bus": "yes", "gtfs:stop_id": "B02575P", "highway": "bus_stop", "name": "Panti Perwira", "name:ja": "\u30d1\u30f3\u30c6\u30a3\u30fb\u30d7\u30eb\u30a6\u30a3\u30e9", "network": "Transjakarta", "network:wikidata": "Q1671143", "public_transport": "platform", "route_ref": "JAK10B", "shelter": "yes"}}, {"type": "node", "id": 6222917604, "lat": -6.1819585, "lon": 106.8231811, "tags": {"bus": "yes", "highway": "bus_stop", "name": "Bank Indonesia 1", "network": "Transjakarta", "network:wikidata": "Q1671143", "public_transport": "platform", "route_ref": "1T"}}, {"type": "node", "id": 6222921989, "lat": -6.1817411, "lon": 106.8372434, "tags": {"bus": "yes", "highway": "bus_stop", "name": "Gunung Agung", "network": "Transjakarta", "network:wikidata": "Q1671143", "public_transport": "platform", "route_ref": "1P"}}, {"type": "node", "id": 6222921990, "lat": -6.1831893, "lon": 106.8350315, "tags": {"bus": "yes", "gtfs:stop_id": "B05815P", "highway": "bus_stop", "name": "Tugu Tani 2", "network": "Transjakarta", "network:wikidata": "Q1671143", "operator": "PT Transjakarta", "public_transport": "platform", "route_ref": "JAK10A", "shelter": "yes"}}, {"type": "node", "id": 6229671388, "lat": -6.2977291, "lon": 106.8401686, "tags": {"bus": "yes", "highway": "bus_stop", "name": "Komplek AL", "network": "Transjakarta", "network:wikidata": "Q1671143", "operator": "PT Transjakarta", "public_transport": "platform", "route_ref": "4B", "shelter": "yes"}}, {"type": "node", "id": 6229671686, "lat": -6.3020323, "lon": 106.8397386, "tags": {"bus": "yes", "highway": "bus_stop", "name:en": "Tanjung Barat", "public_transport": "platform"}}, {"type": "node", "id": 6229674291, "lat": -6.307565, "lon": 106.8386595, "tags": {"bus": "yes", "highway": "bus_stop", "name": "Stasiun Tanjung Barat 2", "network": "Transjakarta", "network:wikidata": "Q1671143", "operator": "PT Transjakarta", "public_transport": "platform", "route_ref": "4B", "shelter": "yes"}}, {"type": "node", "id": 6229760487, "lat": -6.251961, "lon": 106.842493, "tags": {"bus": "yes", "highway": "bus_stop", "name": "Graha Sucofindo", "network": "Transjakarta", "network:wikidata": "Q1671143", "operator": "PT Transjakarta", "public_transport": "platform", "route_ref": "4B;9D", "shelter": "no"}}, {"type": "node", "id": 6229760490, "lat": -6.2502283, "lon": 106.8426294, "tags": {"bus": "yes", "highway": "bus_stop", "name": "RS Tria Dipa", "network": "Transjakarta", "network:wikidata": "Q1671143", "operator": "PT Transjakarta", "public_transport": "platform", "route_ref": "4B;9D", "shelter": "yes"}}, {"type": "node", "id": 6229784986, "lat": -6.2957562, "lon": 106.8409974, "tags": {"bench": "yes", "bus": "yes", "highway": "bus_stop", "name": "Poltangan", "network": "Transjakarta", "network:wikidata": "Q1671143", "operator": "PT Transjakarta", "public_transport": "platform", "route_ref": "4B", "shelter": "yes"}}, {"type": "node", "id": 6229785286, "lat": -6.3028889, "lon": 106.8400371, "tags": {"bus": "yes", "highway": "bus_stop", "name": "Flyover Tanjung Barat", "network": "Transjakarta", "network:wikidata": "Q1671143", "operator": "PT Transjakarta", "public_transport": "platform", "route_ref": "4B", "shelter": "yes"}}, {"type": "node", "id": 6229792588, "lat": -6.2494426, "lon": 106.8428848, "tags": {"bus": "yes", "highway": "bus_stop", "name": "Perdatam", "network": "Transjakarta", "network:wikidata": "Q1671143", "operator": "PT Transjakarta", "public_transport": "platform", "route_ref": "4B", "shelter": "yes"}}, {"type": "node", "id": 6229795785, "lat": -6.2520282, "lon": 106.8426399, "tags": {"bus": "yes", "highway": "bus_stop", "name": "Jalan Pancoran Indah 1", "network": "Transjakarta", "network:wikidata": "Q1671143", "operator": "Transjakarta", "public_transport": "platform", "route_ref": "4B", "shelter": "no"}}, {"type": "node", "id": 6229828086, "lat": -6.2448123, "lon": 106.84319, "tags": {"bus": "yes", "highway": "bus_stop", "name": "Santo Lukas", "network": "Transjakarta", "network:wikidata": "Q1671143", "operator": "PT Transjakarta", "public_transport": "platform", "route_ref": "4B", "shelter": "no"}}, {"type": "node", "id": 6229828087, "lat": -6.2458549, "lon": 106.8427959, "tags": {"bus": "yes", "highway": "bus_stop", "name": "MBAU", "network": "Transjakarta", "network:wikidata": "Q1671143", "operator": "PT Transjakarta", "public_transport": "platform", "route_ref": "4B;9D", "shelter": "yes"}}, {"type": "node", "id": 6229828088, "lat": -6.1829753, "lon": 106.8131156, "tags": {"bus": "yes", "gtfs:stop_id": "B02830P", "highway": "bus_stop", "name": "Pharmin", "network": "Transjakarta", "network:wikidata": "Q1671143", "operator": "PT Transjakarta", "public_transport": "platform", "route_ref": "1H;1N;1R;5M;8M;9D;JAK07;JAK.10;JAK11;JAK12;JAK13;JAK14", "shelter": "yes"}}, {"type": "node", "id": 6229828785, "lat": -6.2465501, "lon": 106.842928, "tags": {"bus": "yes", "highway": "bus_stop", "name": "Pancoran 1", "network": "Transjakarta", "network:wikidata": "Q1671143", "operator": "PT Transjakarta", "public_transport": "platform", "route_ref": "4B", "shelter": "yes"}}, {"type": "node", "id": 6229832885, "lat": -6.1788921, "lon": 106.812624, "tags": {"bus": "yes", "gtfs:stop_id": "B00075P", "highway": "bus_stop", "name": "Asrama Polri Cideng", "network": "Transjakarta", "network:wikidata": "Q1671143", "public_transport": "platform", "route_ref": "JAK13"}}, {"type": "node", "id": 6230131385, "lat": -6.3088185, "lon": 106.8380966, "tags": {"bench": "yes", "bus": "yes", "highway": "bus_stop", "name": "Lenteng Agung Barat", "network": "Transjakarta", "network:wikidata": "Q1671143", "operator": "PT Transjakarta", "public_transport": "platform", "route_ref": "4B", "shelter": "yes"}}, {"type": "node", "id": 6230131388, "lat": -6.3083013, "lon": 106.839167, "tags": {"bench": "yes", "bus": "yes", "highway": "bus_stop", "name": "Tanjung Mas Raya", "network": "Transjakarta", "network:wikidata": "Q1671143", "operator": "PT Transjakarta", "public_transport": "platform", "route_ref": "4B", "shelter": "yes"}}, {"type": "node", "id": 6230133386, "lat": -6.2867476, "lon": 106.8436766, "tags": {"bench": "yes", "bus": "yes", "gtfs:stop_id": "B02160P", "highway": "bus_stop", "name": "LP3I", "network": "Transjakarta", "network:wikidata": "Q1671143", "operator": "PT Transjakarta", "public_transport": "platform", "route_ref": "4B;JAK95", "shelter": "yes"}}, {"type": "node", "id": 6230133388, "lat": -6.2825237, "lon": 106.8445693, "tags": {"bus": "yes", "highway": "bus_stop", "name": "Terminal Pasar Minggu 2", "network": "Transjakarta", "network:wikidata": "Q1671143", "operator": "PT Transjakarta", "public_transport": "platform", "route_ref": "4B", "shelter": "no"}}, {"type": "node", "id": 6230134588, "lat": -6.2771014, "lon": 106.8458623, "tags": {"bus": "yes", "highway": "bus_stop", "name": "Masjid At Taqwa 1", "network": "Transjakarta", "network:wikidata": "Q1671143", "operator": "PT Transjakarta", "public_transport": "platform", "route_ref": "4B", "shelter": "yes"}}, {"type": "node", "id": 6230792386, "lat": -6.2733034, "lon": 106.8464148, "tags": {"bench": "yes", "bus": "yes", "highway": "bus_stop", "name": "Jalan Siaga Bakti 2", "network": "Transjakarta", "network:wikidata": "Q1671143", "operator": "PT Transjakarta", "public_transport": "platform", "route_ref": "4B;9D", "shelter": "yes"}}, {"type": "node", "id": 6230792390, "lat": -6.2709231, "lon": 106.8464423, "tags": {"bus": "yes", "highway": "bus_stop", "name": "Brimob Pejaten Barat 2", "network": "Transjakarta", "network:wikidata": "Q1671143", "operator": "PT Transjakarta", "public_transport": "platform", "route_ref": "4B;9D", "shelter": "yes"}}, {"type": "node", "id": 6230792392, "lat": -6.2691531, "lon": 106.8460508, "tags": {"bus": "yes", "highway": "bus_stop", "name": "PMD", "network": "Transjakarta", "network:wikidata": "Q1671143", "operator": "PT Transjakarta", "public_transport": "platform", "route_ref": "4B;9D", "shelter": "yes"}}, {"type": "node", "id": 6230792393, "lat": -6.2678921, "lon": 106.8453239, "tags": {"bus": "yes", "highway": "bus_stop", "name": "Carrefour Pejaten Barat", "network": "Transjakarta", "network:wikidata": "Q1671143", "operator": "PT Transjakarta", "public_transport": "platform", "route_ref": "4B;9D", "shelter": "no"}}, {"type": "node", "id": 6230792404, "lat": -6.2656759, "lon": 106.8441819, "tags": {"bus": "yes", "highway": "bus_stop", "name": "Seberang Haji Samali", "network": "Transjakarta", "network:wikidata": "Q1671143", "operator": "PT Transjakarta", "public_transport": "platform", "route_ref": "4B", "shelter": "no"}}, {"type": "node", "id": 6230792406, "lat": -6.2633041, "lon": 106.8431942, "tags": {"bus": "yes", "highway": "bus_stop", "name": "Empang 3", "network": "Transjakarta", "network:wikidata": "Q1671143", "operator": "PT Transjakarta", "public_transport": "platform", "route_ref": "4B;9D", "shelter": "yes"}}, {"type": "node", "id": 6230792485, "lat": -6.2731722, "lon": 106.8465604, "tags": {"bench": "yes", "bus": "yes", "highway": "bus_stop", "name": "Jalan Warga", "network": "Transjakarta", "network:wikidata": "Q1671143", "operator": "PT Transjakarta", "public_transport": "platform", "route_ref": "4B", "shelter": "yes"}}, {"type": "node", "id": 6230792492, "lat": -6.2658172, "lon": 106.8440215, "tags": {"bus": "yes", "highway": "bus_stop", "name": "Haji Samali", "network": "Transjakarta", "network:wikidata": "Q1671143", "operator": "PT Transjakarta", "public_transport": "platform", "route_ref": "4B;9D", "shelter": "yes"}}, {"type": "node", "id": 6230792495, "lat": -6.2618014, "lon": 106.8430984, "tags": {"bus": "yes", "highway": "bus_stop", "name": "POM AD 2", "network": "Transjakarta", "network:wikidata": "Q1671143", "operator": "PT Transjakarta", "public_transport": "platform", "route_ref": "4B;9D", "shelter": "yes"}}, {"type": "node", "id": 6230792501, "lat": -6.2584665, "lon": 106.843555, "tags": {"bus": "yes", "highway": "bus_stop", "name": "SMK Karya Teladan", "network": "Transjakarta", "network:wikidata": "Q1671143", "operator": "PT Transjakarta", "public_transport": "platform", "route_ref": "4B", "shelter": "no"}}, {"type": "node", "id": 6230792591, "lat": -6.261949, "lon": 106.8432729, "tags": {"bus": "yes", "highway": "bus_stop", "name": "POM AD 1", "network": "Transjakarta", "network:wikidata": "Q1671143", "operator": "PT Transjakarta", "public_transport": "platform", "route_ref": "4B", "shelter": "yes"}}, {"type": "node", "id": 6230792595, "lat": -6.2566328, "lon": 106.8433062, "tags": {"bus": "yes", "highway": "bus_stop", "name": "Pertani", "network": "Transjakarta", "network:wikidata": "Q1671143", "operator": "PT Transjakarta", "public_transport": "platform", "route_ref": "4B", "shelter": "yes"}}, {"type": "node", "id": 6230792685, "lat": -6.2709293, "lon": 106.8465971, "tags": {"bus": "yes", "highway": "bus_stop", "name": "YBK", "network": "Transjakarta", "network:wikidata": "Q1671143", "operator": "PT Transjakarta", "public_transport": "platform", "route_ref": "4B", "shelter": "no"}}, {"type": "node", "id": 6230792788, "lat": -6.2581375, "lon": 106.843386, "tags": {"bus": "yes", "highway": "bus_stop", "name": "Masjid Guru Amin", "network": "Transjakarta", "network:wikidata": "Q1671143", "operator": "PT Transjakarta", "public_transport": "platform", "route_ref": "4B;9D", "shelter": "yes"}}, {"type": "node", "id": 6231298687, "lat": -6.2546042, "lon": 106.8426617, "tags": {"bus": "yes", "highway": "bus_stop", "name": "Jalan Potlot", "network": "Transjakarta", "network:wikidata": "Q1671143", "operator": "PT Transjakarta", "public_transport": "platform", "route_ref": "7B;4B;9D", "shelter": "no"}}, {"type": "node", "id": 6239515685, "lat": -6.206897, "lon": 106.8223527, "tags": {"bus": "yes", "highway": "bus_stop", "name": "Bumiputera", "network": "Transjakarta", "network:wikidata": "Q1671143", "operator": "Transjakarta", "public_transport": "platform", "route_ref": "1N;1P;1T;4C;9D", "shelter": "yes"}}, {"type": "node", "id": 6239515887, "lat": -6.2166684, "lon": 106.8191437, "tags": {"bus": "yes", "highway": "bus_stop", "name:en": "TansJakarta feeder", "public_transport": "platform"}}, {"type": "node", "id": 6239517892, "lat": -6.2230192, "lon": 106.8231416, "tags": {"bus": "yes", "highway": "bus_stop", "name": "Satrio 6", "network": "Transjakarta", "network:wikidata": "Q1671143", "public_transport": "platform", "route_ref": "5F;6D;6K"}}, {"type": "node", "id": 6239518485, "lat": -6.2174166, "lon": 106.8194183, "tags": {"bus": "yes", "highway": "bus_stop", "name": "Seberang Standard Chartered", "network": "Transjakarta", "network:wikidata": "Q1671143", "public_transport": "platform", "route_ref": "5F;6D;6K"}}, {"type": "node", "id": 6239574288, "lat": -6.2246491, "lon": 106.8271155, "tags": {"bus": "yes", "highway": "bus_stop", "name": "Mega Kuningan", "network": "Transjakarta", "network:wikidata": "Q1671143", "public_transport": "platform", "route_ref": "5F;6D;6K", "shelter": "yes"}}, {"type": "node", "id": 6239574289, "lat": -6.226275, "lon": 106.8257956, "tags": {"bus": "yes", "highway": "bus_stop", "public_transport": "platform"}}, {"type": "node", "id": 6239574290, "lat": -6.2309185, "lon": 106.8281076, "tags": {"bus": "yes", "highway": "bus_stop", "public_transport": "platform"}}, {"type": "node", "id": 6239575487, "lat": -6.2250483, "lon": 106.8283333, "tags": {"bus": "yes", "highway": "bus_stop", "name": "Pos Polisi Satrio", "network": "Transjakarta", "network:wikidata": "Q1671143", "public_transport": "platform", "route_ref": "5F;6D;6K", "shelter": "yes"}}, {"type": "node", "id": 6239575488, "lat": -6.2250447, "lon": 106.8260466, "tags": {"bus": "yes", "highway": "bus_stop", "public_transport": "platform"}}, {"type": "node", "id": 6239575489, "lat": -6.226987, "lon": 106.8258579, "tags": {"bus": "yes", "highway": "bus_stop", "name:en": "POS", "public_transport": "platform"}}, {"type": "node", "id": 6239575490, "lat": -6.2272263, "lon": 106.8260024, "tags": {"bus": "yes", "highway": "bus_stop", "public_transport": "platform"}}, {"type": "node", "id": 6239575491, "lat": -6.2279971, "lon": 106.8275184, "tags": {"bus": "yes", "highway": "bus_stop", "public_transport": "platform"}}, {"type": "node", "id": 6239575494, "lat": -6.231047, "lon": 106.8279527, "tags": {"bus": "yes", "highway": "bus_stop", "name": "Menara Anugerah", "public_transport": "platform"}}, {"type": "node", "id": 6239575495, "lat": -6.232103, "lon": 106.8295294, "tags": {"bus": "yes", "highway": "bus_stop", "public_transport": "platform"}}, {"type": "node", "id": 6239575497, "lat": -6.2332563, "lon": 106.8308462, "tags": {"bus": "yes", "highway": "bus_stop", "public_transport": "platform"}}, {"type": "node", "id": 6239575502, "lat": -6.229631, "lon": 106.8257169, "tags": {"bus": "yes", "highway": "bus_stop", "public_transport": "platform"}}, {"type": "node", "id": 6239575503, "lat": -6.2291422, "lon": 106.8254919, "tags": {"bus": "yes", "highway": "bus_stop", "name": "The East", "public_transport": "platform"}}, {"type": "node", "id": 6239576386, "lat": -6.2299587, "lon": 106.8262692, "tags": {"bus": "yes", "highway": "bus_stop", "name": "Menara Prima", "public_transport": "platform"}}, {"type": "node", "id": 6239626893, "lat": -6.1861165, "lon": 106.8154022, "tags": {"bus": "yes", "highway": "bus_stop", "name": "Tanah Abang AURI", "network": "Transjakarta", "network:wikidata": "Q1671143", "public_transport": "platform", "route_ref": "1H", "shelter": "yes"}}, {"type": "node", "id": 6239627211, "lat": -6.2069827, "lon": 106.8169241, "tags": {"bus": "yes", "highway": "bus_stop", "name": "Karet Tengsin", "network": "Transjakarta", "network:wikidata": "Q1671143", "public_transport": "platform", "route_ref": "5F;6K;JAK09"}}, {"type": "node", "id": 6239627216, "lat": -6.1991749, "lon": 106.814635, "tags": {"bus": "yes", "gtfs:stop_id": "B06754P", "highway": "bus_stop", "name": "Awaludin 2", "network": "Transjakarta", "network:wikidata": "Q1671143", "public_transport": "platform", "route_ref": "JAK.08"}}, {"type": "node", "id": 6239627221, "lat": -6.1949825, "lon": 106.814528, "tags": {"bus": "yes", "highway": "bus_stop", "public_transport": "platform"}}, {"type": "node", "id": 6239627896, "lat": -6.2148917, "lon": 106.8184783, "tags": {"bus": "yes", "highway": "bus_stop", "name": "Flyover Karet 2", "network": "Transjakarta", "network:wikidata": "Q1671143", "operator": "PT Transjakarta", "public_transport": "platform", "route_ref": "1N;1P;1T;4C;9D", "shelter": "no"}}, {"type": "node", "id": 6239627899, "lat": -6.2092039, "lon": 106.817512, "tags": {"bus": "yes", "highway": "bus_stop", "name": "Jalan Karet Pasar Baru Barat IV", "network": "Transjakarta", "network:wikidata": "Q1671143", "public_transport": "platform", "route_ref": "5F;6K;JAK09"}}, {"type": "node", "id": 6239627901, "lat": -6.197583, "lon": 106.8144242, "tags": {"bench": "no", "bin": "yes", "bus": "yes", "gtfs:stop_id": "B02092P", "highway": "bus_stop", "lit": "yes", "name": "KPP Pratama Tanah Abang", "network": "Transjakarta", "network:wikidata": "Q1671143", "public_transport": "platform", "route_ref": "JAK.08;5F;JAK09", "shelter": "yes"}}, {"type": "node", "id": 6239627909, "lat": -6.1921904, "lon": 106.8146894, "tags": {"bus": "yes", "gtfs:stop_id": "B03297P", "highway": "bus_stop", "name": "Rusun Tanah Abang 2", "network": "Transjakarta", "network:wikidata": "Q1671143", "public_transport": "platform", "route_ref": "JAK.08;5F;JAK09", "wheelchair": "no"}}, {"type": "node", "id": 6239627911, "lat": -6.1908115, "lon": 106.8149476, "tags": {"bus": "yes", "gtfs:stop_id": "B01925P", "highway": "bus_stop", "name": "Kelurahan Kebon Kacang", "network": "Transjakarta", "network:wikidata": "Q1671143", "public_transport": "platform", "route_ref": "JAK.08;5F;JAK09"}}, {"type": "node", "id": 6239627912, "lat": -6.1890838, "lon": 106.8151641, "tags": {"bus": "yes", "gtfs:stop_id": "B02318P", "highway": "bus_stop", "name": "Masjid Jami Al Makmur 2", "network": "Transjakarta", "network:wikidata": "Q1671143", "public_transport": "platform", "route_ref": "JAK.08;5F;JAK09", "wheelchair": "no"}}, {"type": "node", "id": 6239627915, "lat": -6.1846856, "lon": 106.8148915, "tags": {"bus": "yes", "gtfs:stop_id": "B01786P", "highway": "bus_stop", "name": "JPO Blok E", "network": "Transjakarta", "network:wikidata": "Q1671143", "operator": "PT Transjakarta", "public_transport": "platform", "route_ref": "1R;5M;8M;9D;JAK.10", "shelter": "yes"}}, {"type": "node", "id": 6239629086, "lat": -6.2049105, "lon": 106.8163596, "tags": {"bench": "no", "bus": "yes", "highway": "bus_stop", "name": "Jalan Karet Pasar Baru Barat I", "network": "Transjakarta", "network:wikidata": "Q1671143", "public_transport": "platform", "route_ref": "5F;6K;JAK09", "shelter": "no"}}, {"type": "node", "id": 6239629087, "lat": -6.1944012, "lon": 106.8143562, "tags": {"bus": "yes", "gtfs:stop_id": "B01974P", "highway": "bus_stop", "name": "Kesatrian Kowal Cut Nyak Dhien", "network": "Transjakarta", "network:wikidata": "Q1671143", "public_transport": "platform", "route_ref": "JAK.08;5F;JAK09", "wheelchair": "no"}}, {"type": "node", "id": 6239647188, "lat": -6.2000705, "lon": 106.8149662, "tags": {"bus": "yes", "gtfs:stop_id": "B01887P", "highway": "bus_stop", "name": "Kecamatan Tanah Abang", "network": "Transjakarta", "network:wikidata": "Q1671143", "public_transport": "platform", "route_ref": "JAK.08;JAK09"}}, {"type": "node", "id": 6239652985, "lat": -6.184867, "lon": 106.8145894, "tags": {"bus": "yes", "highway": "bus_stop", "name": "Blok E", "network": "Transjakarta", "network:wikidata": "Q1671143", "public_transport": "platform", "route_ref": "1H"}}, {"type": "node", "id": 6249607742, "lat": -6.2125485, "lon": 106.8456688, "tags": {"bench": "yes", "bus": "yes", "highway": "bus_stop", "name": "Infinia Park", "network": "Transjakarta", "network:wikidata": "Q1671143", "public_transport": "platform", "route_ref": "4B", "shelter": "yes"}}, {"type": "node", "id": 6249608687, "lat": -6.2313743, "lon": 106.8457925, "tags": {"bus": "yes", "highway": "bus_stop", "name": "Kecamatan Tebet 2", "network": "Transjakarta", "network:wikidata": "Q1671143", "operator": "PT Transjakarta", "public_transport": "platform", "route_ref": "4B;5N", "shelter": "yes"}}, {"type": "node", "id": 6249608693, "lat": -6.2295649, "lon": 106.8472981, "tags": {"bus": "yes", "highway": "bus_stop", "name": "Transvision Jalan Tebet Raya", "network": "Transjakarta", "network:wikidata": "Q1671143", "operator": "PT Transjakarta", "public_transport": "platform", "route_ref": "4B;5N", "shelter": "yes"}}, {"type": "node", "id": 6249633579, "lat": -6.2413092, "lon": 106.8376319, "tags": {"bench": "no", "bus": "yes", "highway": "bus_stop", "name": "Pancoran Barat 2", "network": "Transjakarta", "network:wikidata": "Q1671143", "operator": "PT Transjakarta", "public_transport": "platform", "shelter": "no"}}, {"type": "node", "id": 6249633581, "lat": -6.2415527, "lon": 106.8380523, "tags": {"amenity": "bus_station", "bench": "yes", "bin": "yes", "bus": "yes", "covered": "yes", "departures_board": "realtime", "highway": "bus_stop", "lit": "yes", "name": "Pancoran Arah Timur", "network": "Transjakarta", "network:wikidata": "Q1671143", "old_name": "Pancoran Barat Arah Barat", "operator": "Transjakarta", "public_transport": "platform", "ref": "9-9", "route_ref": "13B;9;9A;9C;9D;M9", "shelter": "yes", "smoking": "no", "type": "public_transport", "wikidata": "Q19944036", "wikipedia": "id:Halte Transjakarta Pancoran", "wikipedia:id": "Halte Transjakarta Pancoran"}}, {"type": "node", "id": 6249641326, "lat": -6.2417327, "lon": 106.8443089, "tags": {"bus": "yes", "highway": "bus_stop", "name": "Pancoran Soepomo", "network": "Transjakarta", "network:wikidata": "Q1671143", "operator": "PT Transjakarta", "public_transport": "platform", "route_ref": "4B;5N", "shelter": "yes"}}, {"type": "node", "id": 6249641330, "lat": -6.2374773, "lon": 106.8445161, "tags": {"bench": "yes", "bin": "yes", "bus": "yes", "highway": "bus_stop", "name": "Taman Rosita", "network": "Transjakarta", "network:wikidata": "Q1671143", "operator": "PT Transjakarta", "public_transport": "platform", "route_ref": "4B;5N", "shelter": "yes"}}, {"type": "node", "id": 6249654917, "lat": -6.2387092, "lon": 106.8308052, "tags": {"bench": "yes", "bus": "yes", "highway": "bus_stop", "name": "Tegal Parang 2", "network": "Transjakarta", "network:wikidata": "Q1671143", "operator": "PT Transjakarta", "public_transport": "platform", "shelter": "no"}}, {"type": "node", "id": 6249654935, "lat": -6.2403171, "lon": 106.8339898, "tags": {"bench": "yes", "bus": "yes", "highway": "bus_stop", "name": "RS Medistra", "network": "Transjakarta", "network:wikidata": "Q1671143", "operator": "PT Transjakarta", "public_transport": "platform", "shelter": "yes"}}, {"type": "node", "id": 6249660496, "lat": -6.2399599, "lon": 106.8454796, "tags": {"bench": "yes", "bin": "yes", "bus": "yes", "highway": "bus_stop", "name": "Pemadam Pos Tebet", "network": "Transjakarta", "network:wikidata": "Q1671143", "operator": "PT Transjakarta", "public_transport": "platform", "route_ref": "4B;5N", "shelter": "yes"}}, {"type": "node", "id": 6249660497, "lat": -6.2393394, "lon": 106.8453622, "tags": {"bus": "yes", "highway": "bus_stop", "name": "Tebet Barat Dalam", "network": "Transjakarta", "network:wikidata": "Q1671143", "operator": "PT Transjakarta", "public_transport": "platform", "route_ref": "4B;5N", "shelter": "yes"}}, {"type": "node", "id": 6249660502, "lat": -6.2341976, "lon": 106.8443219, "tags": {"bench": "yes", "bin": "yes", "bus": "yes", "highway": "bus_stop", "name": "Pasar Pedok", "network": "Transjakarta", "network:wikidata": "Q1671143", "operator": "PT Transjakarta", "public_transport": "platform", "route_ref": "4B;5N", "shelter": "yes"}}, {"type": "node", "id": 6249660889, "lat": -6.2360041, "lon": 106.8443318, "tags": {"bench": "yes", "bin": "yes", "bus": "yes", "highway": "bus_stop", "name": "Universitas Sahid 1", "network": "Transjakarta", "network:wikidata": "Q1671143", "operator": "PT Transjakarta", "public_transport": "platform", "route_ref": "4B;5N", "shelter": "yes"}}, {"type": "node", "id": 6249685791, "lat": -6.2321864, "lon": 106.844971, "tags": {"bus": "yes", "highway": "bus_stop", "name": "Merpati", "network": "Transjakarta", "network:wikidata": "Q1671143", "operator": "PT Transjakarta", "public_transport": "platform", "route_ref": "4B;5N", "shelter": "yes"}}, {"type": "node", "id": 6249710587, "lat": -6.2320008, "lon": 106.845368, "tags": {"bench": "yes", "bus": "yes", "highway": "bus_stop", "name": "Kecamatan Tebet 1", "network": "Transjakarta", "network:wikidata": "Q1671143", "operator": "PT Transjakarta", "public_transport": "platform", "route_ref": "4B;5N", "shelter": "yes"}}, {"type": "node", "id": 6249711362, "lat": -6.2269789, "lon": 106.8476257, "tags": {"bus": "yes", "highway": "bus_stop", "name": "Tebet Balai Sudirman", "network": "Transjakarta", "network:wikidata": "Q1671143", "operator": "PT Transjakarta", "public_transport": "platform", "shelter": "yes"}}, {"type": "node", "id": 6249711367, "lat": -6.2164323, "lon": 106.8441954, "tags": {"bench": "no", "bus": "yes", "highway": "bus_stop", "name": "Jalan Sawo III", "network": "Transjakarta", "network:wikidata": "Q1671143", "operator": "PT Transjakarta", "public_transport": "platform", "route_ref": "4B", "shelter": "no"}}, {"type": "node", "id": 6249711984, "lat": -6.2211601, "lon": 106.8462039, "tags": {"bus": "yes", "highway": "bus_stop", "name": "Jembatan Merah 1", "network": "Transjakarta", "network:wikidata": "Q1671143", "operator": "PT Transjakarta", "public_transport": "platform", "route_ref": "4B", "shelter": "yes"}}, {"type": "node", "id": 6249713410, "lat": -6.224772, "lon": 106.8475087, "tags": {"bus": "yes", "highway": "bus_stop", "name": "Soepomo", "network": "Transjakarta", "network:wikidata": "Q1671143", "operator": "PT Transjakarta", "public_transport": "platform", "route_ref": "4B", "shelter": "yes"}}, {"type": "node", "id": 6249713598, "lat": -6.2270196, "lon": 106.8473562, "tags": {"bus": "yes", "highway": "bus_stop", "name": "Balai Sudirman", "network": "Transjakarta", "network:wikidata": "Q1671143", "operator": "PT Transjakarta", "public_transport": "platform", "route_ref": "4B", "shelter": "no"}}, {"type": "node", "id": 6249713602, "lat": -6.2229564, "lon": 106.8474745, "tags": {"bench": "yes", "bus": "yes", "highway": "bus_stop", "name": "Keselamatan", "network": "Transjakarta", "network:wikidata": "Q1671143", "operator": "PT Transjakarta", "public_transport": "platform", "route_ref": "4B", "shelter": "yes"}}, {"type": "node", "id": 6249713605, "lat": -6.2187621, "lon": 106.8451881, "tags": {"bus": "yes", "highway": "bus_stop", "name": "RS Budi Jaya", "network": "Transjakarta", "network:wikidata": "Q1671143", "operator": "PT Transjakarta", "public_transport": "platform", "route_ref": "4B", "shelter": "yes"}}, {"type": "node", "id": 6249714149, "lat": -6.2141412, "lon": 106.8434803, "tags": {"bus": "yes", "highway": "bus_stop", "name": "Minangkabau", "network": "Transjakarta", "network:wikidata": "Q1671143", "operator": "PT Transjakarta", "public_transport": "platform", "route_ref": "4B", "shelter": "no"}}, {"type": "node", "id": 6249714158, "lat": -6.214394, "lon": 106.843561, "tags": {"bus": "yes", "highway": "bus_stop", "name:en": "Minangkabau", "public_transport": "platform"}}, {"type": "node", "id": 6249714159, "lat": -6.2145221, "lon": 106.8442727, "tags": {"bus": "yes", "highway": "bus_stop", "name": "Saharjo UGM", "network": "Transjakarta", "network:wikidata": "Q1671143", "operator": "PT Transjakarta", "public_transport": "platform", "route_ref": "4B", "shelter": "yes"}}, {"type": "node", "id": 6249741286, "lat": -6.2198516, "lon": 106.8457725, "tags": {"bench": "yes", "bus": "yes", "highway": "bus_stop", "name": "Al Barkah", "network": "Transjakarta", "network:wikidata": "Q1671143", "operator": "PT Transjakarta", "public_transport": "platform", "route_ref": "4B", "shelter": "yes"}}, {"type": "node", "id": 6249771795, "lat": -6.2009033, "lon": 106.844098, "tags": {"bus": "yes", "highway": "bus_stop", "name:en": "Megaria", "public_transport": "platform"}}, {"type": "node", "id": 6249771796, "lat": -6.2009212, "lon": 106.8428366, "tags": {"bus": "yes", "highway": "bus_stop", "name": "Stasiun Cikini Selatan", "network": "Transjakarta", "network:wikidata": "Q1671143", "public_transport": "platform", "route_ref": "4C"}}, {"type": "node", "id": 6249775448, "lat": -6.2109558, "lon": 106.8512887, "tags": {"bus": "yes", "highway": "bus_stop", "name": "St. Manggarai", "network": "Transjakarta", "network:wikidata": "Q1671143", "note": "Pool 4B Halte SMK Karya Guna", "public_transport": "platform", "route_ref": "JAK.86", "shelter": "yes"}}, {"type": "node", "id": 6249805091, "lat": -6.2013119, "lon": 106.841213, "tags": {"bus": "yes", "highway": "bus_stop", "name": "Surabaya", "network": "Transjakarta", "network:wikidata": "Q1671143", "public_transport": "platform", "route_ref": "4C"}}, {"type": "node", "id": 6249829087, "lat": -6.2011131, "lon": 106.8428777, "tags": {"bus": "yes", "highway": "bus_stop", "name": "SMPN 8", "network": "Transjakarta", "network:wikidata": "Q1671143", "public_transport": "platform", "route_ref": "4C;5M"}}, {"type": "node", "id": 6249961698, "lat": -6.1914644, "lon": 106.8480789, "tags": {"bench": "yes", "bus": "yes", "highway": "bus_stop", "name": "Halte Kenari Mas", "public_transport": "platform", "shelter": "yes"}}, {"type": "node", "id": 6249961699, "lat": -6.1908295, "lon": 106.8473007, "tags": {"bus": "yes", "highway": "bus_stop", "name:en": "RS M Ridwan", "public_transport": "platform"}}, {"type": "node", "id": 6249961889, "lat": -6.1996454, "lon": 106.8418186, "tags": {"bus": "yes", "gtfs:stop_id": "B05431P", "highway": "bus_stop", "name": "Stasiun Cikini Barat", "network": "Transjakarta", "network:wikidata": "Q1671143", "public_transport": "platform", "route_ref": "JAK10A;JAK10B"}}, {"type": "node", "id": 6249961893, "lat": -6.2008516, "lon": 106.8362153, "tags": {"bus": "yes", "highway": "bus_stop", "name": "Gedung Wanita", "network": "Transjakarta", "network:wikidata": "Q1671143", "public_transport": "platform", "route_ref": "4C"}}, {"type": "node", "id": 6249961894, "lat": -6.200104, "lon": 106.8311214, "tags": {"bus": "yes", "highway": "bus_stop", "name": "Museum Proklamasi", "network": "Transjakarta", "network:wikidata": "Q1671143", "public_transport": "platform", "route_ref": "4C"}}, {"type": "node", "id": 6249961904, "lat": -6.1965613, "lon": 106.8485325, "tags": {"bus": "yes", "gtfs:stop_id": "B06321P", "highway": "bus_stop", "name": "RSCM 2", "network": "Transjakarta", "network:wikidata": "Q1671143", "public_transport": "platform", "route_ref": "4C;JAK10A"}}, {"type": "node", "id": 6249962090, "lat": -6.2000021, "lon": 106.8325389, "tags": {"bus": "yes", "highway": "bus_stop", "name": "Taman Suropati", "network": "Transjakarta", "network:wikidata": "Q1671143", "public_transport": "platform", "route_ref": "4C"}}, {"type": "node", "id": 6249962091, "lat": -6.1996587, "lon": 106.8297064, "tags": {"bus": "yes", "highway": "bus_stop", "name:en": "TansJakarta feeder", "public_transport": "platform"}}, {"type": "node", "id": 6249962092, "lat": -6.1973965, "lon": 106.8252692, "tags": {"bus": "yes", "highway": "bus_stop", "name": "Graha Mandiri", "network": "Transjakarta", "network:wikidata": "Q1671143", "public_transport": "platform", "shelter": "yes"}}, {"type": "node", "id": 6249962094, "lat": -6.1961042, "lon": 106.8244646, "tags": {"bus": "yes", "highway": "bus_stop", "name": "Imam Bonjol", "name:ja": "\u30a4\u30de\u30fc\u30e0\u30fb\u30dc\u30f3\u30b8\u30e7\u30eb", "network": "Transjakarta", "network:wikidata": "Q1671143", "public_transport": "platform", "route_ref": "4C"}}, {"type": "node", "id": 6249962096, "lat": -6.1956112, "lon": 106.8302022, "tags": {"bus": "yes", "highway": "bus_stop", "name": "Taman Menteng 1", "network": "Transjakarta", "network:wikidata": "Q1671143", "operator": "PT Transjakarta", "public_transport": "platform", "shelter": "no"}}, {"type": "node", "id": 6249962099, "lat": -6.1959977, "lon": 106.8505476, "tags": {"bench": "yes", "bus": "yes", "check_date:shelter": "2023-05-13", "highway": "bus_stop", "name": "RS Carolus", "network": "Transjakarta", "network:wikidata": "Q1671143", "public_transport": "platform", "route_ref": "4C", "shelter": "yes"}}, {"type": "node", "id": 6249962116, "lat": -6.1930711, "lon": 106.8489659, "tags": {"bench": "yes", "bus": "yes", "highway": "bus_stop", "name": "Halte Pertanian", "public_transport": "platform", "shelter": "yes"}}, {"type": "node", "id": 6249962119, "lat": -6.1904924, "lon": 106.8475969, "tags": {"bench": "yes", "bin": "no", "bus": "yes", "highway": "bus_stop", "name": "Halte SMKN", "public_transport": "platform", "shelter": "yes"}}, {"type": "node", "id": 6249962486, "lat": -6.1994261, "lon": 106.8273583, "tags": {"bus": "yes", "highway": "bus_stop", "name": "KPU", "network": "Transjakarta", "network:wikidata": "Q1671143", "public_transport": "platform", "route_ref": "4C", "shelter": "yes"}}, {"type": "node", "id": 6249962524, "lat": -6.1757664, "lon": 106.8445233, "tags": {"bus": "yes", "highway": "bus_stop", "name:en": "TansJakarta feeder", "public_transport": "platform"}}, {"type": "node", "id": 6249969809, "lat": -6.1748744, "lon": 106.8433493, "tags": {"bus": "yes", "highway": "bus_stop", "name:en": "Gelanggang", "public_transport": "platform"}}, {"type": "node", "id": 6249989686, "lat": -6.1861298, "lon": 106.84467, "tags": {"bus": "yes", "highway": "bus_stop", "name:en": "Kanisius", "public_transport": "platform"}}, {"type": "node", "id": 6250029787, "lat": -6.1764256, "lon": 106.8400816, "tags": {"bus": "yes", "highway": "bus_stop", "name": "RSPAD 1", "network": "Transjakarta", "network:wikidata": "Q1671143", "public_transport": "platform", "route_ref": "1P;14B", "shelter": "yes"}}, {"type": "node", "id": 6250032085, "lat": -6.1881997, "lon": 106.8228312, "tags": {"bus": "yes", "highway": "bus_stop", "name": "M.H. Thamrin 2", "network": "Transjakarta", "network:wikidata": "Q1671143", "operator": "PT Transjakarta", "public_transport": "platform", "route_ref": "1N;1P;1T", "shelter": "yes"}}, {"type": "node", "id": 6251480489, "lat": -6.1722891, "lon": 106.8109399, "tags": {"bus": "yes", "gtfs:stop_id": "B03220P", "highway": "bus_stop", "name": "RSUD Tarakan", "network": "Transjakarta", "network:wikidata": "Q1671143", "public_transport": "platform", "route_ref": "JAK13"}}, {"type": "node", "id": 6251501287, "lat": -6.1671741, "lon": 106.8270015, "tags": {"bus": "yes", "highway": "bus_stop", "name:en": "Garuda", "public_transport": "platform"}}, {"type": "node", "id": 6251585804, "lat": -6.167003, "lon": 106.8258723, "tags": {"bus": "yes", "gtfs:stop_id": "B02701P", "highway": "bus_stop", "name": "Pecenongan 1", "network": "Transjakarta", "network:wikidata": "Q1671143", "public_transport": "platform", "route_ref": "JAK.10"}}, {"type": "node", "id": 6251585808, "lat": -6.1665727, "lon": 106.8264399, "tags": {"bus": "yes", "highway": "bus_stop", "public_transport": "platform"}}, {"type": "node", "id": 6251586089, "lat": -6.1708955, "lon": 106.8212896, "tags": {"bus": "yes", "highway": "bus_stop", "public_transport": "platform"}}, {"type": "node", "id": 6251586093, "lat": -6.1651247, "lon": 106.8265494, "tags": {"bus": "yes", "highway": "bus_stop", "public_transport": "platform"}}, {"type": "node", "id": 6251979490, "lat": -6.1678478, "lon": 106.8299824, "tags": {"bus": "yes", "highway": "bus_stop", "name:en": "Pintu Air", "public_transport": "platform"}}, {"type": "node", "id": 6252754290, "lat": -6.1759622, "lon": 106.8203641, "tags": {"bus": "yes", "highway": "bus_stop", "public_transport": "platform"}}, {"type": "node", "id": 6252754594, "lat": -6.1712029, "lon": 106.8336908, "tags": {"bus": "yes", "highway": "bus_stop", "name": "Lapangan Banteng 1", "network": "Transjakarta", "network:wikidata": "Q1671143", "public_transport": "platform", "route_ref": "1P"}}, {"type": "node", "id": 6252754595, "lat": -6.1705086, "lon": 106.8331319, "tags": {"bus": "yes", "highway": "bus_stop", "name": "Lapangan Banteng 3", "network": "Transjakarta", "network:wikidata": "Q1671143", "public_transport": "platform", "route_ref": "1P"}}, {"type": "node", "id": 6252754596, "lat": -6.1687001, "lon": 106.8322016, "tags": {"bus": "yes", "highway": "bus_stop", "name:en": "Katedral", "public_transport": "platform", "shelter": "yes"}}, {"type": "node", "id": 6252776086, "lat": -6.1688125, "lon": 106.8349605, "tags": {"bus": "yes", "highway": "bus_stop", "name": "Kantor Pos Lapangan Banteng", "network": "Transjakarta", "network:wikidata": "Q1671143", "public_transport": "platform", "route_ref": "1P"}}, {"type": "node", "id": 6252776091, "lat": -6.1681553, "lon": 106.8255069, "tags": {"bus": "yes", "highway": "bus_stop", "name:en": "Veteran III", "public_transport": "platform"}}, {"type": "node", "id": 6253059086, "lat": -6.2130738, "lon": 106.8199155, "tags": {"bus": "yes", "highway": "bus_stop", "name": "Karet Sudirman 1", "network": "Transjakarta", "network:wikidata": "Q1671143", "operator": "Transjakarta", "public_transport": "platform", "route_ref": "1N;1P;1T;4C;9D", "shelter": "yes"}}, {"type": "node", "id": 6255540694, "lat": -6.1700671, "lon": 106.8402276, "tags": {"bus": "yes", "gtfs:stop_id": "B04647P", "highway": "bus_stop", "name": "Sekolah Penabur Gunung Sahari", "network": "Transjakarta", "network:wikidata": "Q1671143", "public_transport": "platform", "route_ref": "1P;JAK17"}}, {"type": "node", "id": 6255540698, "lat": -6.1668189, "lon": 106.8391212, "tags": {"bus": "yes", "highway": "bus_stop", "name": "Taman Wahidin", "network": "Transjakarta", "network:wikidata": "Q1671143", "public_transport": "platform"}}, {"type": "node", "id": 6255540699, "lat": -6.1660562, "lon": 106.8389622, "tags": {"bus": "yes", "highway": "bus_stop", "name:en": "Budi Utomo", "public_transport": "platform"}}, {"type": "node", "id": 6255540891, "lat": -6.1691946, "lon": 106.8397087, "tags": {"bus": "yes", "highway": "bus_stop", "name": "Wahidin 2", "network": "Transjakarta", "network:wikidata": "Q1671143", "public_transport": "platform"}}, {"type": "node", "id": 6255540892, "lat": -6.1631425, "lon": 106.8382031, "tags": {"bus": "yes", "highway": "bus_stop", "name:en": "Golden Truli", "public_transport": "platform"}}, {"type": "node", "id": 6255570297, "lat": -6.1620911, "lon": 106.8379399, "tags": {"bus": "yes", "highway": "bus_stop", "name": "Pasar Baru Timur 1", "network": "Transjakarta", "network:wikidata": "Q1671143", "public_transport": "platform", "route_ref": "12B"}}, {"type": "node", "id": 6255570299, "lat": -6.161008, "lon": 106.8376759, "tags": {"bus": "yes", "highway": "bus_stop", "name:en": "Telkom", "public_transport": "platform"}}, {"type": "node", "id": 6255570304, "lat": -6.1597313, "lon": 106.83916, "tags": {"bus": "yes", "highway": "bus_stop", "name": "Hotel Borobudur 2", "network": "Transjakarta", "network:wikidata": "Q1671143", "public_transport": "platform", "route_ref": "12B"}}, {"type": "node", "id": 6255570311, "lat": -6.161283, "lon": 106.8397348, "tags": {"bus": "yes", "highway": "bus_stop", "name": "Ruko Bungur Besar", "network": "Transjakarta", "network:wikidata": "Q1671143", "public_transport": "platform", "route_ref": "12B"}}, {"type": "node", "id": 6255570317, "lat": -6.1620302, "lon": 106.8400556, "tags": {"highway": "bus_stop", "name:en": "Golden Truly"}}, {"type": "node", "id": 6255570398, "lat": -6.1626455, "lon": 106.8422761, "tags": {"bus": "yes", "highway": "bus_stop", "name:en": "Rel KA", "public_transport": "platform"}}, {"type": "node", "id": 6255570401, "lat": -6.1622665, "lon": 106.8429234, "tags": {"bench": "yes", "bus": "yes", "highway": "bus_stop", "lit": "no", "name": "Muhammadiyah", "public_transport": "platform", "shelter": "yes"}}, {"type": "node", "id": 6255570503, "lat": -6.1609698, "lon": 106.8481658, "tags": {"bus": "yes", "highway": "bus_stop", "name:en": "Garuda", "public_transport": "platform"}}, {"type": "node", "id": 6255583788, "lat": -6.1627728, "lon": 106.8403652, "tags": {"bus": "yes", "highway": "bus_stop", "name": "Kemayoran", "network": "Transjakarta", "network:wikidata": "Q1671143", "public_transport": "platform", "route_ref": "12B"}}, {"type": "node", "id": 6255583796, "lat": -6.1563969, "lon": 106.8467621, "tags": {"bus": "yes", "highway": "bus_stop", "public_transport": "platform"}}, {"type": "node", "id": 6255583797, "lat": -6.1567136, "lon": 106.8453069, "tags": {"bus": "yes", "highway": "bus_stop", "name:en": "Angkasa", "public_transport": "platform"}}, {"type": "node", "id": 6255583798, "lat": -6.1571655, "lon": 106.8449718, "tags": {"bus": "yes", "highway": "bus_stop", "name:en": "Kran", "public_transport": "platform"}}, {"type": "node", "id": 6255583804, "lat": -6.1582083, "lon": 106.8372415, "tags": {"bus": "yes", "highway": "bus_stop", "public_transport": "platform"}}, {"type": "node", "id": 6255588888, "lat": -6.1567318, "lon": 106.8467802, "tags": {"bus": "yes", "highway": "bus_stop", "name:en": "Pos Pol", "public_transport": "platform"}},